사업장명,소재지전화,소재지면적,소재지전체주소,도로명전체주소,도로명우편번호,좌표정보(x),좌표정보(y),위도,경도
모아동물병원,0317332010,0.0,경기도 성남시 수정구 신흥동 6953 산성역포레스티아아파트 서문상가 101호,"경기도 성남시 수정구 수정로 291, 산성역포레스티아아파트 서문상가동 1층 101호 (신흥동)",13260.0,212949.4423,438781.8782,37.45110319023222,127.14713716547355
리브동물의료센터,032-567-2475,354.0,인천광역시 서구 왕길동 641-10 검단KB빌딩,"인천광역시 서구 검단로 455, 105,202호 (왕길동, 검단KB빌딩)",22616.0,169467.1948,455504.6607,37.60135569544539,126.65502871211659
24시 해든동물의료센터 민락점,031-851-7007,536.25,경기도 의정부시 민락동 805,"경기도 의정부시 천보로 68, 201호 (민락동)",11813.0,208228.5207,471445.8621,37.74545365734119,127.09414783282486
내포조은동물병원,041-631-2202,0.0,충청남도 홍성군 홍북읍 신경리 1181 승우빌딩,"충청남도 홍성군 홍북읍 청사로 36, 승우빌딩 2층 203-1호",32265.0,170839.7958,349705.8883,36.64810965096848,126.67469620038217
나온동물병원,031-8019-7897,97.75,경기도 용인시 기흥구 보정동 1207-1 포레스트프라자,"경기도 용인시 기흥구 죽전로 29, 포레스트프라자 2층 3호 (보정동)",16898.0,209865.4006,424312.0133,37.3207653948181,127.11209130936587
베를린 동물치과센터,02-830-1494,0.0,서울특별시 송파구 방이동 180-3 올림픽타워빌,"서울특별시 송파구 백제고분로 506, 4층 (방이동, 올림픽타워빌)",5627.0,210147.6494,445888.0447,37.51516449240252,127.11557003799898
뉴하트동물병원,031-928-6356,91.88,경기도 의정부시 산곡동 690-1 센타프라자,"경기도 의정부시 서광로 135, 센타프라자 2층 201-1호 (산곡동)",11800.0,209708.2592,469615.3921,37.72894745508802,127.11091281724742
동해삼척태백축산업협동조합 동물병원,"573-5031,3",3848.0,강원특별자치도 삼척시 남양동 329-12,강원특별자치도 삼척시 중앙로 217 (남양동),25920.0,391750.1725,440027.1551,37.4425618644821,129.1674731630941
두타동물병원,574-0775,36.54,강원특별자치도 삼척시 남양동 18-16 8통4반,강원특별자치도 삼척시 중앙로 245-2 (남양동),25921.0,391763.2055,440328.1322,37.44526905082841,129.1676984879444
삼척동물병원,574-0075,0.0,강원특별자치도 삼척시 정상동 241-3,강원특별자치도 삼척시 오십천로 558-1 (정상동),25928.0,392633.2618,439104.5874,37.43407222380487,129.17720449776328
라온동물병원,033-943-9949,153.01,강원특별자치도 양양군 양양읍 구교리 192-3,강원특별자치도 양양군 양양읍 성안길 27,25023.0,341943.122,509562.1999,38.07776900851289,128.61849396775563
홍현관동물병원,552-9117,105.15,강원특별자치도 태백시 황지동 80-1,강원특별자치도 태백시 황지로 80 (황지동),26021.0,376853.2498,408977.6888,37.16593129965738,128.99185733644399
태백동물병원,553-3622,230.0,강원특별자치도 태백시 황지동 240-8,강원특별자치도 태백시 번영로 212 (황지동),26023.0,376264.2782,408570.008,37.162371253406434,128.9851341768557
현대가축병원,033-563-0739,30.0,강원특별자치도 정선군 정선읍 봉양리 209-10 3통1반,강원특별자치도 정선군 정선읍 정선로 1330,26131.0,347106.0757,432096.9794,37.37930760035137,128.66166248536587
다나동물병원,033-563-6563,45.9,강원특별자치도 정선군 정선읍 봉양리 321,강원특별자치도 정선군 정선읍 비봉로 46,26130.0,347229.2195,432286.1406,37.38099173590526,128.66308987716482
인제축산업협동조합 동물병원,461-2801,40.02,강원특별자치도 인제군 인제읍 덕산리 710-1 인제축협,"강원특별자치도 인제군 인제읍 덕산로 64, 인제축협",24627.0,304071.6188,509471.4008,38.08209660663285,128.18696373975865
인제종합동물병원,033-461-3960,66.0,강원특별자치도 인제군 인제읍 남북리 810-5,강원특별자치도 인제군 인제읍 비봉로44번길 70 (행복한집 102호),24624.0,302453.4119,507212.6568,38.061936134684515,128.1682001724721
합강동물병원,033-463-9713,77.1,강원특별자치도 인제군 인제읍 상동리 30-7,강원특별자치도 인제군 인제읍 인제로 227,24630.0,303045.9469,508194.8034,38.070715350195215,128.17509189640006
속초동물의료센터,033-638-0075,82.58,강원특별자치도 속초시 교동 741-5,강원특별자치도 속초시 수복로 69 (교동),24847.0,338097.7441,522950.0024,38.19892884927892,128.57727507699295
속초삼성동물메디컬센터,636-0305,363.63,강원특별자치도 속초시 교동 1022-12,"강원특별자치도 속초시 엑스포로2길 22, 속초삼성동물병원메디컬센터 (교동)",24854.0,338384.8417,522589.0288,38.195634081545926,128.58048116207146
나의 동물메디컬 센터,033-636-7179,311.0,강원특별자치도 속초시 조양동 1497-5,강원특별자치도 속초시 동해대로 4163 (조양동),24874.0,338297.6868,522062.0926,38.19090213162341,128.57938420759334
대명동물병원,673-3185,0.0,강원특별자치도 양양군 양양읍 남문리 167-4,강원특별자치도 양양군 양양읍 남문로 19,25029.0,342099.5388,509105.1832,38.07362880937061,128.62018524834926
금강동물병원,033-673-8275,55.05,강원특별자치도 양양군 양양읍 연창리 203-15,"강원특별자치도 양양군 양양읍 관아길 20, 102호",25021.0,342692.1775,509557.2649,38.07760682609311,128.6270267351972
동해동물병원,033-532-7886,70.0,강원특별자치도 동해시 천곡동 886,강원특별자치도 동해시 중앙로 214 (천곡동),25770.0,386982.4546,448511.8649,37.51993189049187,129.11578648288975
삼성동물병원,033-533-7522,143.41,강원특별자치도 동해시 천곡동 979-4,"강원특별자치도 동해시 중앙로 158 (천곡동, 영동상사)",25777.0,387233.5443,448044.9223,37.51567677057308,129.1185060181328
쥬쥬동물병원,033-522-3313,43.23,강원특별자치도 동해시 효가동 162-53,"강원특별자치도 동해시 지양길 6, 1층 (효가동)",25802.0,386381.7281,445507.4419,37.49300185426959,129.10823513535144
필동물병원,033-534-7178,52.89,강원특별자치도 동해시 천곡동 1077-5 삼양타워1차,"강원특별자치도 동해시 한섬로 61-1, 108호 (천곡동, 삼양타워1차)",25761.0,386543.4973,448573.8005,37.520578303315375,129.11084013147203
더에스동물병원,051-913-7582,190.78,부산광역시 수영구 남천동 29-19 목원빌딩,"부산광역시 수영구 수영로464번길 6, 목원빌딩 3층 302호 (남천동)",48314.0,392264.1472,185152.2796,35.14717230754243,129.11054311095978
본 동물 건강검진영상센터,053-633-7585,395.2,대구광역시 달서구 상인동 54-5,"대구광역시 달서구 월곡로 332, 2층 (상인동)",42749.0,338562.8191,259125.3959,35.82248245152283,128.53409845715177
한국고양이혈액센터,02-544-7975,229.77,서울특별시 양천구 신월동 456-8,"서울특별시 양천구 중앙로 349, 2층 (신월동)",7933.0,186583.8534,447197.7976,37.5269219114283,126.84901235694646
가이드 동물의료센터,031-360-7555,575.29,경기도 군포시 금정동 726-1 디 싸이트(D Site),"경기도 군포시 금정로 47, 디 싸이트(D Site) (금정동)",15813.0,194643.1869,429272.4453,37.36549585818362,126.94031862555784
훈동물병원,051-702-0100,106.96,부산광역시 해운대구 좌동 1289-2 거성빌딩,"부산광역시 해운대구 좌동순환로 174, 거성빌딩 3층 301호 (좌동)",48078.0,398071.7062,188659.0565,35.17763231929567,129.17507038929486
두카메디컬센터,031-422-7534,120.76,경기도 안양시 동안구 관양동 1802 평촌 오비즈타워 217호,"경기도 안양시 동안구 벌말로 126, 평촌 오비즈타워 2층 217호 (관양동)",14057.0,197294.6536,433065.3427,37.39968219274338,126.9702359191827
윤동물병원,031-563-8875,59.4,경기도 남양주시 다산동 6169,"경기도 남양주시 다산중앙로82번안길 118, 111-1,112호 (다산동)",12249.0,214462.5937,456646.9465,37.61204341600923,127.16458803502546
뉴로동물암센터,051-711-8251,237.6,부산광역시 연제구 연산동 702-10 진도사옥,"부산광역시 연제구 중앙대로 1084, 진도사옥 1층 (연산동)",47596.0,389473.2815,189228.0611,35.184414325168134,129.0808713658409
왕십리동물병원,02-2138-1888,0.0,서울특별시 성동구 도선동 69 성동삼성쉐르빌 101동 225호,"서울특별시 성동구 무학로6길 50, 101동 225호 (도선동, 성동삼성쉐르빌)",4709.0,203017.0215,451346.2811,37.56439313278848,127.03493635835326
가디언 동물의료센터,02-442-8287,0.0,서울특별시 서초구 방배동 907-4 석교빌딩,"서울특별시 서초구 방배로 110, 석교빌딩 2층 201호 (방배동)",6665.0,199608.7819,442434.7169,37.48410499888474,126.9963653929314
덕계 원 동물병원,031-928-4815,126.0,경기도 양주시 덕계동 928-7,"경기도 양주시 덕계로 132-12, 제이타워 2층 2호 (덕계동)",11444.0,204818.1987,479562.8026,37.81860768922428,127.05550711897749
체크업동물병원,02-535-4005,119.0,서울특별시 서초구 방배동 782-3,"서울특별시 서초구 동작대로 190, 승정빌딩 2층 (방배동)",6559.0,198436.4254,443476.8031,37.49349287875584,126.98310787101352
우리동물병원,055-817-7582,75.4,경상남도 의령군 의령읍 중동리 434-6 101호,"경상남도 의령군 의령읍 의병로22길 21-1, 101호",52148.0,314812.1438,202794.5676,35.3179646337721,128.26335875411792
씽씽 동물의료센터,031-8088-7077,191.0,경기도 양주시 덕계동 883-1,"경기도 양주시 회천중앙로 225, 2층 4,5호 (덕계동)",11444.0,204500.4875,479521.655,37.81823856835413,127.05189852736625
김포시 반려동물 공공진료센터,"031-5186-1941,2",0.0,경기도 김포시 운양동 1307-2,"경기도 김포시 김포한강1로 242, 운양역 환승센터 공영주차장 A동 1층 (운양동)",10078.0,172070.5798,461263.1183,37.653320260343996,126.68428905193188
펫가든동물병원,031-422-4475,0.0,경기도 의왕시 내손동 743 롯데마트,"경기도 의왕시 계원대학로 7, 롯데마트 2층 (내손동)",16036.0,197598.214,430907.7699,37.3802429833396,126.9736714524911
자연동물병원,063-462-7733,132.0,전북특별자치도 군산시 수송동 819-3,전북특별자치도 군산시 공단대로 252 (수송동),54101.0,174099.8906,273305.3725,35.95970559109869,126.7136941610822
로지동물의료센터,02-6958-8575,121.68,서울특별시 송파구 거여동 697 송파시그니처롯데캐슬,"서울특별시 송파구 거마로 56, 송파시그니처롯데캐슬 상가동 지하1층 1-3,1-4호 (거여동, 송파시그니처롯데캐슬)",5767.0,213149.5228,443705.4731,37.495461967525344,127.1494857917052
뿌리동물병원,0315460375,0.0,경기도 수원시 팔달구 인계동 986-16,"경기도 수원시 팔달구 세지로 178, 1,2,3층 (인계동)",16476.0,201902.4364,418363.5009,37.26721734109757,127.02223877691557
한국마사회 부산경남부속동물병원,051-901-7434,1003.63,부산광역시 강서구 범방동 1833,부산광역시 강서구 가락대로 929 (범방동),46745.0,371094.2857,185672.9879,35.15568339098941,128.87846949146402
명지오션시티동물병원,051-271-7582,0.0,부산광역시 강서구 명지동 3238,부산광역시 강서구 명지오션시티11로 66 (명지동),46765.0,373495.7945,177766.2244,35.084043252520274,128.90315528688936
스마일동물병원,0519017384,82.3,부산광역시 강서구 범방동 1833,부산광역시 강서구 가락대로 929 (범방동),46745.0,371094.2857,185672.9879,35.15568339098941,128.87846949146402
해옴동물병원,051-271-8119,190.42,부산광역시 강서구 명지동 3239-5,"부산광역시 강서구 명지오션시티4로 69, 201호 (명지동)",46764.0,373568.7516,177628.0327,35.0827857828957,128.90392594207006
네오메디컬동물병원,051-291-4545,0.0,부산광역시 강서구 명지동 3442-4,부산광역시 강서구 명지국제6로 234 (명지동),46726.0,375286.3802,179175.9659,35.09643359187967,128.923076901272
국제동물병원,051-204-7588,0.0,부산광역시 강서구 명지동 3357-6 미주프라자,"부산광역시 강서구 명지국제8로 243, 미주프라자 205호 (명지동)",46773.0,374957.7283,179392.3781,35.09844021320349,128.91952022809295
이로운동물병원,0519167575,0.0,부산광역시 강서구 명지동 3331-7번지,"부산광역시 강서구 명지국제11로 35, 103동 105호 (명지동)",46726.0,375206.5906,180094.1179,35.104718677614805,128.9223964046521
마리동물병원,051-901-7482,0.0,부산광역시 강서구 범방동 1833 부산경남경마공원,"부산광역시 강서구 가락대로 929, 부산경남경마공원 (범방동)",46745.0,371094.2857,185672.9879,35.15568339098941,128.87846949146402
하단동물병원,291-4456,0.0,부산광역시 사하구 하단동 608-1번지,부산광역시 사하구 하신중앙로 296 (하단동),49414.0,378926.782,180039.9103,35.10357715236152,128.96316505779066
하단오거리 동물의료센터,264-8275,265.04,부산광역시 사하구 하단동 617-10번지,"부산광역시 사하구 하신중앙로 340, 1층 (하단동)",49407.0,379316.7171,180252.5913,35.10542378995295,128.96748540322878
한솔동물병원,201-0475,107.0,부산광역시 사하구 괴정동 262-1번지,부산광역시 사하구 낙동대로 184 (괴정동),49338.0,381944.4684,179879.7156,35.101594179314546,128.99620829101946
스마트동물병원,261-1891,48.0,부산광역시 사하구 다대동 1551-39번지,부산광역시 사하구 다대로 624 (다대동),49503.0,379691.4175,174201.2482,35.050844597486766,128.97028242891355
다대동물병원,266-7582,0.0,부산광역시 사하구 다대동 909번지,부산광역시 사하구 다대로 549 (다대동),49524.0,379768.0509,174910.8576,35.05722338645045,128.97127545918883
괴정동물병원,207-3344,43.0,부산광역시 사하구 괴정동 896-17,"부산광역시 사하구 낙동대로 246-1, 1층 (괴정동)",49341.0,381387.2669,179633.5942,35.09947743659167,128.99004683634521
지 동물병원,051-728-0557,173.0,부산광역시 기장군 정관면 용수리 1312-5번지,부산광역시 기장군 정관면 용수로 21,46014.0,398018.5917,205092.901,35.32566073144808,129.17844289332024
아산동물의료센터,727-7522,106.9,부산광역시 기장군 정관읍 매학리 717-3번지,부산광역시 기장군 정관읍 정관로 583,46015.0,397967.1708,204592.4916,35.321163831146364,129.17775694526054
정관착한동물의료센터,051-923-0119,273.92,"부산광역시 기장군 정관읍 매학리 713-6 정관제일타워Ⅱ 202,203호","부산광역시 기장군 정관읍 정관로 575-3, 정관제일타워Ⅱ 202, 203호",46015.0,397873.6817,204631.5309,35.32153394487748,129.17673897221601
디알씨동물병원,051-624-8275,122.0,부산광역시 기장군 기장읍 동부리 124번지,부산광역시 기장군 기장읍 차성로 314,46061.0,401451.7659,196278.1034,35.24558374058278,129.21401119948644
부산야생동물치료센터,209-2091,881.57,부산광역시 사하구 하단동 1207-1,부산광역시 사하구 낙동남로 1240 (하단동),49435.0,377006.9204,180185.0867,35.10522376779317,128.94215102906043
고동물병원,246-0473,74.7,부산광역시 중구 남포동5가 51-7번지,부산광역시 중구 자갈치로47번길 5 (남포동5가),48983.0,384955.1257,179511.633,35.097730886798274,129.02912604967563
희망종합동물병원,241-0103,53.85,부산광역시 중구 남포동5가 60-0001번지 2층,"부산광역시 중구 구덕로 51, 2층 (남포동5가)",48983.0,385046.215,179539.724,35.097967223626945,129.0301306976281
피닉스동물병원,246-7551,92.38,부산광역시 중구 남포동2가 36-0007번지 외 1필지(남포동4가 1-2번지),부산광역시 중구 구덕로 30-1 (남포동2가),48954.0,385264.539,179559.2188,35.098102756624364,129.03252798272155
대신동물병원,051-254-2304,0.0,부산광역시 서구 서대신동3가 490-1번지,부산광역시 서구 망양로 19-1 (서대신동3가),49210.0,383451.6379,181120.9181,35.112501982467535,129.01300331090187
길경진동물병원,244-5504,53.0,부산광역시 서구 동대신동2가 368-1번지,부산광역시 서구 구덕로 308 (동대신동2가),49217.0,383853.3386,181003.4035,35.11137023141988,129.01738087456246
만박동물병원,0512547744,179.51,부산광역시 서구 토성동1가 8-25,"부산광역시 서구 까치고개로 257, 1층 (토성동1가)",49224.0,384481.3637,179718.936,35.09968503136601,129.02397953592927
대호동물병원,051-256-1188,156.0,부산광역시 서구 토성동5가 34-3 해오름상가1층,"부산광역시 서구 구덕로 130 (토성동5가, 해오름상가1층)",49246.0,384325.619,179413.6862,35.09696380994463,129.02220458723855
삼성종합동물병원,051-205-1017,0.0,부산광역시 사하구 감천동 682번지 감천백산상가2-1호,부산광역시 사하구 감천로 32 (감천동),49446.0,381947.348,178690.0983,35.0908773907083,128.99597878317445
라온동물병원,291-7900,53.01,부산광역시 사하구 하단동 505-8번지,부산광역시 사하구 낙동대로 511 (하단동),49309.0,379149.295,180733.465,35.10978540845885,128.96575410944732
코끼리동물병원,051-204-7576,0.0,부산광역시 사하구 신평동 589-1번지,부산광역시 사하구 하신번영로 201 (신평동),49431.0,378500.6006,179507.0594,35.0988525625593,128.9583786433193
좌천동물병원,727-0170,20.0,부산광역시 기장군 장안읍 좌천리 252-13,부산광역시 기장군 장안읍 해맞이로 17-1,46033.0,404115.2555,203878.7833,35.31350048669169,129.245141336854
영덕울진축협 동물병원,054-733-7120~3,150.0,경상북도 영덕군 영덕읍 화수리 592,경상북도 영덕군 영덕읍 영덕로 366,36423.0,413082.5805,327638.3401,36.42606429162601,129.37671278298203
박동물병원,372-5506,0.0,경상북도 청도군 풍각면 송서리 578-9 16통5반,경상북도 청도군 풍각면 헐티로 198,38308.0,346615.6763,239197.9509,35.641785594229624,128.61954177825507
고려동물병원,371-0563,45.0,경상북도 청도군 청도읍 고수리 854-1번지 8통11반,경상북도 청도군 청도읍 청화로 217,38341.0,358179.3956,239195.7527,35.639983460025945,128.7471616055164
청도축협동물병원,373-5205,255.6,경상북도 청도군 화양읍 동천리 139-2번지,경상북도 청도군 화양읍 청려로 1790,38333.0,355122.797,240369.4985,35.651041734081424,128.71365492026658
우리동물병원,054-373-3366,53.8,경상북도 청도군 화양읍 범곡리 140-3번지,경상북도 청도군 화양읍 청화로 55,38329.0,356937.9967,240118.4325,35.64849340734712,128.73364118310008
우성동물병원,054-373-7115,75.67,경상북도 청도군 청도읍 원정리 534-3번지,경상북도 청도군 청도읍 중앙로 78,38337.0,358606.7645,239893.9094,35.64620441599996,128.75201515182655
이솝동물병원,052-295-8875,362.93,울산광역시 북구 매곡동 898-2,울산광역시 북구 당수골2길 3(매곡동),44225.0,413714.1594,239986.2095,35.636660319650986,129.3600900313865
정철 동물병원,052-287-0348,0.0,울산광역시 북구 진장동 727-4,울산광역시 북구 진장17길 11 (진장동),44250.0,413478.9035,231692.1172,35.56202072437487,129.3553057968043
호계동물병원,052-265-8275,100.97,울산광역시 북구 신천동 431-12,울산광역시 북구 호계로 365-1 (신천동),44221.0,412610.6753,239802.4672,35.63524351839494,129.34786895886495
서울한빛동물병원,052-297-7582,77.29,울산광역시 북구 상안동 357,"울산광역시 북구 신답로 48 (상안동, 프리지아)",44209.0,412186.1266,239113.3627,35.62912910672638,129.34300469068094
울산착한동물병원,052-291-1190,0.0,울산광역시 북구 매곡동 230 102호,"울산광역시 북구 매곡산업로 177, 102호 (매곡동)",44225.0,413866.5754,240278.8712,35.63926283695839,129.3618488733664
화봉GL동물병원,052-288-9191,112.2,울산광역시 북구 화봉동 1463번지 화봉 쌍용예가 124동 113호,"울산광역시 북구 화동로 11, 124동 1층 113호 (화봉동, 화봉 쌍용예가)",44240.0,414529.3837,235091.8679,35.59240952320467,129.36778368348226
울산동물병원,297-0979,400.5,울산광역시 중구 학성동 192-1,울산광역시 중구 학성공원13길 45 (학성동),44527.0,411839.8643,230949.0797,35.5556808287795,129.33704777103347
라온 동물 메디컬센터,286-5050,0.0,울산광역시 중구 반구동 26-6번지,울산광역시 중구 번영로 524 (반구동),44508.0,412098.1465,232133.9937,35.566296279300786,129.3402042080219
전영호동물병원,292-4112,81.0,울산광역시 중구 반구동 106-6번지,울산광역시 중구 구교로 163 (반구동),44513.0,412104.371,231353.7915,35.559268904327496,129.34006858238487
이박사동물병원,211-0023,0.0,울산광역시 중구 성남동 182-8번지,울산광역시 중구 중앙길 75 (성남동),44529.0,410078.1411,230855.5064,35.55521283363225,129.31760888309944
우정 동물병원,281-2294,0.0,울산광역시 중구 유곡동 475-10번지,"울산광역시 중구 종가3길 24, 1층 (유곡동)",44539.0,408192.9166,231382.5846,35.56035702121808,129.2969684486091
닥터강동물병원,246-3123,57.2,울산광역시 중구 태화동 37-7번지,울산광역시 중구 화진길 13-2 (태화동),44452.0,409263.7899,230795.413,35.5548437915973,129.30861898559814
산타클라라동물병원,244-4296,0.0,울산광역시 중구 다운동 552-2번지 대왕빌딩 1층,울산광역시 중구 다운로 1 (다운동),44407.0,406245.027,230833.0814,35.55581529641689,129.27536050108523
태화동물병원,211-2399,0.0,울산광역시 중구 태화동 428-2,울산광역시 중구 태화로 160 (태화동),44457.0,407880.8398,230529.6116,35.55274084936049,129.29331024474325
제갈견 동물병원,212-2475,98.35,울산광역시 중구 우정동 279-2,울산광역시 중구 명륜로 64-1 (우정동),44467.0,409475.2121,231081.5635,35.55737612628786,129.3110228621775
리틀쥬동물의료원,268-8884,358.9,울산광역시 남구 신정동 576-18,울산광역시 남구 봉월로 104 (신정동),44670.0,409088.1383,229335.1443,35.54173016289648,129.30630671261034
울산 이승진동물병원,258-2516,490.0,울산광역시 남구 달동 1400-5,울산광역시 남구 삼산로 94 (달동),44722.0,410157.2089,228556.745,35.53449440197674,129.31788454204184
문수동물병원,052-223-5575,0.0,울산광역시 남구 무거동 461 웰츠타워,"울산광역시 남구 대학로 164, 102호 (무거동, 웰츠타워)",44611.0,405168.7369,230008.7398,35.54861455654084,129.26329039745056
강남동물병원,267-0025,87.7,울산광역시 남구 달동 1328-3번지,울산광역시 남구 돋질로 234 (달동),44703.0,411287.2817,229487.1199,35.542633018159634,129.33057724787668
옥동종합 동물병원,266-0075,70.0,울산광역시 남구 옥동 249-3,울산광역시 남구 문수로 358 (옥동),44662.0,407853.3739,228500.5043,35.53447298270604,129.29248755101966
원헬스 동물의료센터,247-7975,434.13,울산광역시 남구 무거동 228-1,"울산광역시 남구 북부순환도로 23, 1층 (무거동)",44629.0,405433.6134,230398.6922,35.55207161961438,129.26630807398092
일산동물의료센터,052)252-5878,0.0,울산광역시 동구 일산동 574-33번지 1통3반,울산광역시 동구 방어진순환도로 645 (일산동),44067.0,420250.4306,224904.3804,35.49941719846306,129.42808922714104
방어진 행복한 동물병원,052)235-7585,96.74,울산광역시 동구 방어동 73-1번지,울산광역시 동구 방어진순환도로 548 (방어동),44059.0,420112.4351,223926.9659,35.4906461979318,129.42630503290437
손대하 동물병원,052-234-7576,0.0,울산광역시 동구 일산동 948-3,"울산광역시 동구 일산진6길 22, 1층 (일산동)",44056.0,420448.6761,224749.8753,35.49798194463684,129.4302303494603
쿨펫동물병원 동구점,052-232-3567,0.0,울산광역시 동구 일산동 577-1번지,"울산광역시 동구 방어진순환도로 637 (일산동, 홈플러스)",44068.0,420194.5062,224850.3237,35.498942811717306,129.42745875874522
숲동물병원,052-977-2405,179.0,울산광역시 남구 삼산동 1472-2,울산광역시 남구 돋질로 273 (삼산동),44700.0,411652.8987,229681.5898,35.544306402328715,129.33465650953028
위즈펫동물병원(롯데마트 울산점),268-3567,0.0,울산광역시 남구 달동 830-1번지,"울산광역시 남구 삼산로 74, 2층 (달동, 롯데마트울산점)",44722.0,409970.3908,228450.8647,35.53358041823021,129.31579889138018
울산에스동물메디컬센터,707-2475,0.0,울산광역시 남구 달동 116-2,울산광역시 남구 삼산로 160 (달동),44726.0,410788.7871,228788.4905,35.536447488061064,129.32490307661647
주동물병원,0529038275,0.0,울산광역시 남구 삼산동 180-33번지,울산광역시 남구 돋질로 385-1 (삼산동),44710.0,412785.7908,229635.9396,35.54365302410627,129.34712735930088
대공원 동물병원,258-2520,146.59,울산광역시 남구 신정동 1873 대공원코오롱파크폴리스 207호,"울산광역시 남구 대공원로 241, 207호 (신정동, 대공원코오롱파크폴리스)",44667.0,409204.4716,228147.844,35.531013220421464,129.30728238085717
웰니스동물병원(롯데월드점),0507-1330-1480,0.0,서울특별시 송파구 잠실동 40-1 롯데월드 1층 S-911호,"서울특별시 송파구 올림픽로 240, 롯데월드 1층 S-911호 (잠실동)",5554.0,208589.3633,445455.9041,37.51128662866968,127.09793903616495
분당다원동물병원,031-711-6775,53.0,경기도 성남시 분당구 정자동 180번지 미켈란쉐르빌 116호,"경기도 성남시 분당구 정자일로 100, 116호 (정자동, 미켈란쉐르빌)",13562.0,209409.0211,428565.1512,37.35909179566611,127.10699604147918
한마음,933-6858,50.14,인천광역시 강화군 강화읍 남산리 18-3,인천광역시 강화군 강화읍 강화대로 365-4,23037.0,154862.3117,471427.7905,37.74421152523847,126.48865921163727
인천강화옹진축협 동물병원,032-933-9509,100.0,인천광역시 강화군 강화읍 관청리 117-1번지,인천광역시 강화군 강화읍 강화대로 376-1,23036.0,154848.3159,471570.176,37.74549362045187,126.48849156858972
종합,934-2570,0.0,인천광역시 강화군 강화읍 관청리 119-9 7통,인천광역시 강화군 강화읍 강화대로 378,23036.0,154819.9229,471572.7433,37.74551534738697,126.488169271519
베스트,934-9340,0.0,인천광역시 강화군 강화읍 갑곳리 519-2,인천광역시 강화군 강화읍 강화대로 217,23027.0,156285.1154,471024.5024,37.74064732095561,126.50482588730323
서울동물,933-2729,0.0,인천광역시 강화군 강화읍 남산리,"인천광역시 강화군 강화읍 충렬사로 6, 2층 202호",23037.0,154725.7434,470779.6017,37.738365078071304,126.48715019057931
백제동물병원,061-433-2700,40.0,전라남도 강진군 강진읍 동성리 408,전라남도 강진군 강진읍 탐진로 135,59226.0,178797.0288,127187.8038,34.64282450661041,126.76955035697375
순흥동물병원,061-744-4956,25.0,전라남도 순천시 장천동 19-1번지,전라남도 순천시 팔마로 26 (장천동),57959.0,244798.0753,160940.3163,34.94630568707683,127.49121795705024
무안종합동물병원,061-454-2928,0.0,전라남도 무안군 무안읍 성내리 145-2번지 3통5반 1동 101호,전라남도 무안군 무안읍 성안길 22,58524.0,152200.3424,165768.8168,34.989684928725225,126.47726851651588
이레동물병원,061-745-7577,34.5,전라남도 순천시 황전면 괴목리 45-1번지,전라남도 순천시 황전면 괴목길 11-1,57902.0,238896.8242,178248.9661,35.10256042192791,127.42742673451748
전남야생동물구조관리센터,749-3898,0.0,전라남도 순천시 인월동 226-1 야생동물구조관리센터,"전라남도 순천시 순천만길 922-15, 야생동물구조관리센터 (인월동)",58027.0,244168.5143,154696.2218,34.89005160032994,127.48399681458555
휴 동물병원,0617430075,96.0,전라남도 순천시 조례동 373-5,전라남도 순천시 조례연동길 18 (조례동),57948.0,248225.3307,162368.7784,34.959024039730686,127.52881745122833
진성동물병원,061-742-0202,48.9,전라남도 순천시 장천동 22-10,전라남도 순천시 팔마로 6-1 (장천동),57959.0,244600.0364,160953.915,34.946436980294095,127.48905080715927
오룡 동물병원,061-282-2398,109.0,전라남도 무안군 삼향읍 남악리 1854번지,전라남도 무안군 삼향읍 남악5로48번길 21,58568.0,151772.095,145789.365,34.80957887387999,126.47373117674148
21세기동물병원,061-279-0006,138.91,전라남도 목포시 상동 127-6번지,전라남도 목포시 영산로 503 (상동),58643.0,146606.77,145935.7595,34.81064055579225,126.41727277945272
PET119동물병원,284-6994,298.82,전라남도 목포시 상동 854-8번지,전라남도 목포시 옥암로 129 (상동),58662.0,147273.0679,145850.9423,34.80991078180723,126.42455979689201
우리동물병원,061-281-7520,81.0,전라남도 목포시 석현동 816-17 우진아트빌,"전라남도 목포시 영산로 607, 우진아트빌 상가동 101호 (석현동)",58616.0,146898.4444,146859.2609,34.818979879936876,126.42040193615394
전남낙농농협 보성공장 동물병원,061-858-6330,0.0,전라남도 보성군 벌교읍 장좌리 54-3,전라남도 보성군 벌교읍 남하로 158,59431.0,232672.8171,147813.0677,34.82844223637161,127.35797318575614
제일동물병원,061-744-1997,25.0,전라남도 순천시 인제동 369-20번지 제일동물병원,"전라남도 순천시 팔마로 40-2, 제일동물병원 (인제동)",57959.0,244933.2803,160934.0793,34.946243493573476,127.49269767191119
연향동물병원,061-745-0075,88.16,전라남도 순천시 연향동 1437-4,전라남도 순천시 충효로 81 (연향동),57991.0,246888.415,160944.8401,34.94625205318368,127.51410050775046
전남낙농농협 동물병원,740-8520,183.5,전라남도 순천시 남정동 545-7 전남낙농농협,"전라남도 순천시 우석로 108, 전남낙농농협 (남정동)",57958.0,244571.6075,160056.3063,34.938347594689574,127.48869174509124
김동물병원,061-745-8778,19.36,전라남도 순천시 인제동 377-1번지,전라남도 순천시 장평로 49 (인제동),57959.0,245036.5782,160711.8213,34.94423558613462,127.49381646745013
온누리동물병원,061-723-7582,93.5,전라남도 순천시 조례동 1718-4,"전라남도 순천시 남신월길 21 (조례동, 온누리 동물병원)",57949.0,247462.9805,161927.5083,34.95508261462871,127.5204459006485
한일동물병원,061-452-0877,0.0,전라남도 무안군 무안읍 성내리 193-6번지 1통1반,전라남도 무안군 무안읍 면성2길 40,58524.0,152114.179,165822.7365,34.99016685185813,126.47632171519281
중마동물병원,793-0075,60.48,전라남도 광양시 중동 696-4번지 18통4반 305호,전라남도 광양시 중마중앙로 106 (중동),57786.0,263732.6013,160330.5361,34.93979717174497,127.69843741948719
한강동물병원,792-0081,123.99,전라남도 광양시 광영동 1686번지 21통4반 성호아파트 104동 403호,전라남도 광양시 광영로 61 (광영동),57721.0,265884.5465,162792.5969,34.96185066337666,127.7221855202974
요셉동물병원,061-763-7582,79.0,전라남도 광양시 광양읍 칠성리 3통1반,전라남도 광양시 광양읍 칠성로 76,57743.0,253500.0838,164576.2388,34.978656202516,127.58670835956353
광양동물메디컬센터,061-792-7501,161.0,전라남도 광양시 중동 1438-4,"전라남도 광양시 사동로 70, 1층, 2층 (중동)",57780.0,262710.2383,160958.7645,34.94552321745364,127.68729433515023
대덕 동물병원,061-867-3235,0.0,전라남도 장흥군 대덕읍 신월리 103-4번지,전라남도 장흥군 대덕읍 대대로 926,59365.0,189613.6169,111172.7015,34.498625118349715,126.88772396529964
호남동물병원,783-0028,43.6,전라남도 구례군 구례읍 봉남리 145-1,전라남도 구례군 구례읍 봉성로 58,57642.0,242232.2871,189903.8935,35.20747522256922,127.46460377771378
나주종합동물병원,336-8275,198.96,전라남도 나주시 성북동,"전라남도 나주시 중앙로 3 (성북동, 나주종합동물병원)",58255.0,174361.6254,170115.1159,35.02966619175237,126.71985935970405
최동물병원,061-337-9974,30.42,전라남도 나주시 왕곡면 양산리 33-4번지,전라남도 나주시 왕곡면 고분로 1576,58304.0,173091.4239,163596.1369,34.97087323485487,126.7061515450155
나주축협동물병원,334-7588,595.0,전라남도 나주시 왕곡면 장산리 198,전라남도 나주시 왕곡면 영산포로 4,58276.0,172997.7771,164923.756,34.98283749105244,126.70508299065139
신안동물병원,061-271-6014,30.0,전라남도 신안군 압해읍 신장리 470-3,"전라남도 신안군 압해읍 천사로 901, 3동 302호",58827.0,140569.1446,148152.7208,34.83028845540199,126.3511336893453
가람동물병원,0613327975,77.91,전라남도 나주시 빛가람동 283-3,"전라남도 나주시 배멧1길 40 (빛가람동, 창우빌딩 101호)",58217.0,180883.2227,169016.1989,35.01990566541542,126.79134915897814
한일동물병원(출장진료전문동물병원),061-382-6100,42.3,전라남도 담양군 담양읍 천변리 92-1번지,전라남도 담양군 담양읍 천변1길 22,57343.0,198168.8231,202043.8355,35.317781244773826,126.98067022767133
담양축협동물병원,061-380-5588,0.0,전라남도 담양군 담양읍 백동리 342번지,전라남도 담양군 담양읍 삼거리길 8-6,57347.0,198286.4952,201257.7193,35.31069595079913,126.98196595884434
장미동물병원(출장진료전문동물병원),382-8215,8.16,전라남도 담양군 담양읍 백동리 680-4번지,"전라남도 담양군 담양읍 죽향대로 1169, 남도한우 3층",57348.0,198158.9677,201186.1971,35.310051064687876,126.98056383459668
고려동물병원(출장진료전문동물병원),382-9646,40.0,전라남도 담양군 담양읍 지침리 58번지,전라남도 담양군 담양읍 지침4길 7-7,57345.0,198638.3079,202266.7716,35.31979141203523,126.98583273747191
매일동물병원,761-0355,0.0,전라남도 광양시 광양읍 인동리 1725번지 15통6반 오성타워맨션 101동 801호,전라남도 광양시 광양읍 순광로 695,57756.0,253733.7284,163661.9692,34.97040321549652,127.5892080922181
온누리 동물병원,794-7582,0.0,전라남도 광양시 중동 1636-12번지,전라남도 광양시 중마중앙로 83 (중동),57788.0,263668.8561,160096.5984,34.93769264344035,127.69772187980172
반석동물병원(출장전문병원),324-5544,0.0,전라남도 함평군 함평읍 내교리 90-19번지,전라남도 함평군 함평읍 서부길 53-11,57154.0,156084.3557,173635.6286,35.06076802102946,126.51939204423783
미래동물병원,323-8274,82.6,전라남도 함평군 월야면 정산리 696-14,전라남도 함평군 월야면 월야장교길 12,57121.0,164469.3122,189056.5371,35.200092872773695,126.61064509465753
김동물병원,061-351-3366,28.0,전라남도 영광군 영광읍 남천리 336-4번지,전라남도 영광군 영광읍 신남로3길 23,57043.0,154811.3573,197404.2544,35.27494290041482,126.50413502222142
여수동물병원,641-4542,0.0,전라남도 여수시 서교동 224-1번지,전라남도 여수시 좌수영로 32 (서교동),59752.0,266627.8676,138543.0376,34.74323415293402,127.72839864029326
제일동물병원,061-356-2486,55.2,전라남도 영광군 법성면 법성리 1148-26번지,전라남도 영광군 법성면 굴비로 88-1,57014.0,149842.7757,206405.2033,35.35583066660631,126.44897561230046
신일환동물병원,682-1010,95.0,전라남도 여수시 학동 11-16번지,전라남도 여수시 쌍봉로 43 (학동),59671.0,260414.8074,141109.4118,34.7667523396855,127.66073905162823
문수동물병원,651-6514,15.0,전라남도 여수시 율촌면 상봉리 168번지,전라남도 여수시 율촌면 봉전길 3,59603.0,250740.5833,147141.3843,34.82164886396895,127.55543317826275
박동물병원,061-351-2737,10.0,전라남도 영광군 영광읍 교촌리 174-12번지,전라남도 영광군 영광읍 물무로 174,57046.0,155925.3624,197398.9359,35.27494467023114,126.5163790524416
영광축협동물병원,353-8555,166.05,전라남도 영광군 영광읍 녹사리 33-1,전라남도 영광군 영광읍 천년로 1452,57049.0,154679.5412,197130.2874,35.272467664733114,126.50270140247572
여천종합동물병원,644-5250,50.0,전라남도 여수시 돌산읍 군내리 545번지,전라남도 여수시 돌산읍 망월대길 7,59777.0,266162.3252,124354.0634,34.615371409512456,127.72220622385507
제일동물병원,061-686-2244,100.0,전라남도 여수시 학동 67-3번지,전라남도 여수시 도원로 261 (학동),59673.0,260331.7664,140501.8396,34.76128087154149,127.6597885459618
현대동물병원,061-864-6888,0.0,전라남도 장흥군 장흥읍 건산리 395-2번지,전라남도 장흥군 장흥읍 동교1길 47,59324.0,191700.5531,131123.2733,34.678486272367124,126.91025086643927
희망동물병원,061-863-1149,0.0,전라남도 장흥군 장흥읍 건산리 722-17,전라남도 장흥군 장흥읍 중앙로 38-1,59324.0,191487.0897,131222.746,34.679381179997854,126.90792060197704
명성동물병원,061-867-3444,0.0,전라남도 장흥군 관산읍 옥당리 430-9번지,전라남도 장흥군 관산읍 정남진로 16-1,59348.0,194443.0293,118226.0328,34.5622448207642,126.94026139309346
영생동물병원,322-2302,145.0,전라남도 함평군 함평읍 내교리 214-7 11통4반,전라남도 함평군 함평읍 중앙길 67,57153.0,156277.0677,173971.0967,35.06380009503263,126.52148685449038
에덴동물병원,061-542-2785,0.0,전라남도 진도군 진도읍 남동리 745-25번지,전라남도 진도군 진도읍 교동3길 2,58914.0,131826.0401,109561.0464,34.48189284884937,126.25867329730947
진도개메디컬센터,061-540-6313,421.27,전라남도 진도군 진도읍 동외리 268-14,전라남도 진도군 진도읍 성죽골길 30,58927.0,133623.3033,109613.7105,34.482484879008766,126.2782327793709
우수영동물병원,533-7373,28.1,전라남도 해남군 문내면 동외리 857-7번지,전라남도 해남군 문내면 동영길 22-1,59004.0,136894.1121,122317.7348,34.597202086220115,126.31289451862135
해남진도축협동물병원,534-9601,103.5,전라남도 해남군 해남읍 평동리 162번지 해남축산농협,"전라남도 해남군 해남읍 홍교로 64, 해남축산농협",59040.0,163252.135,118981.0262,34.56840722897003,126.60035984131008
대한동물병원,061-533-7582,104.6,전라남도 해남군 해남읍 고도리 479-6번지,"전라남도 해남군 해남읍 남부순환로 122, 2층",59042.0,163085.1654,118613.1602,34.565085219062645,126.59855634996671
해남동물병원,061-537-7119,584.0,전라남도 해남군 해남읍 남외리 544-4,전라남도 해남군 해남읍 남부순환로 180,59041.0,162581.7361,118851.0265,34.56721116875362,126.59306017958082
하나동물병원,061-532-7582,66.0,전라남도 해남군 해남읍 고도리 84-7,전라남도 해남군 해남읍 남부순환로 78,59043.0,163491.9734,118668.6069,34.56559957395166,126.60298681240981
서종철동물병원,061-372-3114,28.0,전라남도 화순군 이양면 이양리 306-1번지,전라남도 화순군 이양면 이양로 30,58165.0,198822.2131,153740.1948,34.882391033064444,126.98792749650427
백남수동물병원,061-373-7406,66.0,전라남도 화순군 화순읍 일심리 844번지,전라남도 화순군 화순읍 화동로 7,58126.0,199345.7151,172924.1712,35.05531260902278,126.99363754514404
닥터수동물병원,061-653-7585,0.0,전라남도 여수시 문수동 188-6,전라남도 여수시 문수로 46 (문수동),59706.0,264102.5775,139493.4001,34.751961696918784,127.7008961353755
애니피아동물병원,061-644-2729,35.0,전라남도 여수시 국동 543 국동대주아파트,"전라남도 여수시 신월로 688, 국동대주상가동 206호 (국동)",59761.0,265776.5402,137279.4728,34.73190018347521,127.71900419769104
늘사랑 양한방 동물병원,061-686-0275,0.0,전라남도 여수시 선원동 1269-4번지,전라남도 여수시 무선로 179 (선원동),59640.0,259663.0966,142159.779,34.77626405018741,127.65260274274775
김수의과병원,054-283-1626,34.95,경상북도 포항시 북구 용흥동 118-18번지 45통5반,경상북도 포항시 북구 용당로 55 (용흥동),37707.0,412564.6434,283956.6881,36.032858663565186,129.35910025161837
최영준동물병원,054-284-0123,122.0,경상북도 포항시 북구 용흥동 117-3번지 55통5반,경상북도 포항시 북구 용당로 56 (용흥동),37742.0,412600.3482,283944.7712,36.03274357013233,129.35949287705577
기계동물병원,054-248-1858,43.0,경상북도 포항시 북구 기계면 현내리 312번지 29통5반,경상북도 포항시 북구 기계면 기계로 92-8 (삼오빌라),37528.0,398741.2824,287830.4552,36.07066053543014,129.20681593382014
미르동물병원,054-292-3112,150.0,경상북도 포항시 남구 오천읍 용덕리 449번지,경상북도 포항시 남구 오천읍 해병로269번길 3,37908.0,417472.8781,277213.3466,35.97105707323637,129.41166242630354
초원동물병원,0542771188,152.0,경상북도 포항시 북구 대신동 80-3,경상북도 포항시 북구 선착로 7 (대신동),37720.0,414102.7058,287562.7911,36.06499300162983,129.37712708035156
포항축협동물병원,054-255-6123,113.83,경상북도 포항시 북구 기계면 내단리 329번지,경상북도 포항시 북구 기계면 새마을로 1481,37527.0,400150.216,287307.171,36.065659471532804,129.22231195283348
양덕동물병원,255-0099,128.0,경상북도 포항시 북구 양덕동 1755번지 21통7반,경상북도 포항시 북구 장량로 199 (양덕동),37592.0,416335.0395,289521.6357,36.08213745562159,129.40242059239364
청운동물병원,054-242-7896,289.8,경상북도 포항시 북구 용흥동 625-2번지 22통2반,경상북도 포항시 북구 새천년대로 570 (용흥동),37752.0,412043.7928,283053.9793,36.024843550531926,129.35308433995942
포항중앙동물병원,232-0075,0.0,경상북도 포항시 북구 양덕동 689-2번지,경상북도 포항시 북구 신덕로 254 (양덕동),37572.0,415073.4141,290132.4971,36.087917527805466,129.38859212835135
대흥동물병원,054-249-2100,147.62,경상북도 포항시 북구 장성동 1554-15번지,경상북도 포항시 북구 새천년대로1249번길 48-6 (장성동),37583.0,414398.4135,288976.4592,36.07765714007285,129.38079013301592
닥터 노아 동물병원,054-284-0775,0.0,경상북도 포항시 남구 대잠동 982-7,경상북도 포항시 남구 대이로1번길 20-1 (대잠동),37685.0,411141.3569,281911.9988,36.014756188555005,129.342776456469
견우동물병원,0542527577,81.6,경상북도 포항시 북구 두호동 1052-2번지,경상북도 포항시 북구 두호로 29 (두호동),37710.0,413944.7575,286987.7323,36.059849644339366,129.37521974740292
이선동물병원,0542411003,66.33,경상북도 포항시 북구 두호동 1103-1번지,경상북도 포항시 북구 새천년대로1076번길 2 (두호동),37622.0,413619.5463,287493.3414,36.064473773966014,129.3717498574616
조은동물병원,0542777535,0.0,경상북도 포항시 남구 상도동 601-14번지,경상북도 포항시 남구 중흥로 124 (상도동),37767.0,412033.215,282031.7746,36.01564126357849,129.352693502589
포항동물병원,054-246-0080,239.75,경상북도 포항시 북구 용흥동 144-8,경상북도 포항시 북구 용당로 19-1 (용흥동),37707.0,412378.5658,283679.1807,36.03040038108837,129.35696294789327
대호동물병원,054-247-7582,99.7,경상북도 포항시 남구 오천읍 원리 893-4,경상북도 포항시 남구 오천읍 남원로 77,37883.0,416536.9364,277094.5718,35.970195470262716,129.401262574813
장성동물병원,249-7582,56.0,경상북도 포항시 북구 장성동 1353-5번지 12통,경상북도 포항시 북구 용두산길 23 (장성동),37609.0,414462.5043,287661.1005,36.0657990305045,129.38114406067655
신세계동물병원,273-9636,148.76,경상북도 포항시 남구 해도동 123-5번지,경상북도 포항시 남구 중앙로 20-1 (해도동),37811.0,413678.2297,282016.4119,36.01514393997958,129.37092204322192
유기화동물의료센터,"051-506-8492,8493",0.0,부산광역시 동래구 사직동 100-2번지,"부산광역시 동래구 아시아드대로 131-1, 2층 (사직동)",47875.0,388055.2241,190505.5547,35.19618774134133,129.06560387536427
시소동물병원,371-1129,98.46,전라남도 화순군 화순읍 훈리 44-68번지,"전라남도 화순군 화순읍 진각로 131-3, 1층",58119.0,198669.7854,173790.8776,35.06312413243505,126.98622679971147
광주24시스카이동물메디컬센터,062-719-4275,1398.34,"광주광역시 서구 쌍촌동 970-13 두왕빌딩(3,4,5층)","광주광역시 서구 상무대로 879, 두왕빌딩 3,4,5층 (쌍촌동)",61965.0,186996.8724,183521.0617,35.15074452494247,126.85810710590918
베스트고양이병원,062-384-7582,81.51,광주광역시 서구 화정동 755-19,"광주광역시 서구 화운로 111, 2층 (화정동)",61987.0,188891.3376,183353.2705,35.14925493985865,126.87889997857957
더편한동물병원,02-982-7975,112.7,서울특별시 성북구 길음동 498-1 래미안길음센터피스,"서울특별시 성북구 숭인로 50, 상가동 2203호 (길음동, 래미안길음센터피스)",2727.0,202337.783,456539.1907,37.61118240421652,127.02726444137764
마곡M동물의료센터,0226627515,0.0,서울특별시 강서구 방화동 245-31,"서울특별시 강서구 방화대로33길 3, 1~2층 (방화동)",7605.0,183698.0984,451825.4919,37.56857015508422,126.81626300648584
펫트리동물의료센터,02-6949-5775,0.0,서울특별시 강동구 길동 413-46 베스트올,"서울특별시 강동구 양재대로 1453, 베스트올 1층 (길동)",5353.0,212205.3242,448170.0962,37.53570083505892,127.13888235633438
해밀동물병원,051-710-1766,0.0,부산광역시 해운대구 송정동 311-22,"부산광역시 해운대구 송정광어골로 22, 1층 (송정동)",48073.0,400139.14,188900.8272,35.17940064206365,129.19780875225575
천풍동물병원,031-987-0411,182.2,경기도 김포시 통진읍 마송리 120-1번지,"경기도 김포시 통진읍 김포대로 2248, 1층 101호",10019.0,164362.6844,465427.2745,37.69057000870093,126.59674074925975
한국양봉농협 동물병원,031-677-9323,6880.17,경기도 안성시 미양면 구수리 247,경기도 안성시 미양면 안성맞춤대로 586,17600.0,222403.8771,385643.5311,36.97212847434195,127.25239553691394
연합에이엠씨,031-422-7579,189.14,경기도 안양시 동안구 평촌동 897 평촌칼라힐주차빌딩,"경기도 안양시 동안구 시민대로 312, 평촌칼라힐주차빌딩 2층 234~237호 (평촌동)",14065.0,196822.12,432554.707,37.39507975992875,126.96490146774836
아이튼튼 동물병원,02-899-7580,105.84,경기도 광명시 일직동 510-8 골드스타빌딩 205호,"경기도 광명시 신기로 7, 골드스타빌딩 205호 (일직동)",14344.0,189527.6415,435394.6372,37.420613646513,126.88248390857531
한라동물의료센터,064-725-7577,268.0,제주특별자치도 제주시 이도이동 1994-4,"제주특별자치도 제주시 남광로 20, 1층 (이도이동)",63231.0,157009.7946,-298.4625321,33.4928694760247,126.53821671079011
에이치동물메디컬센터,051-583-7575,0.0,부산광역시 금정구 부곡동 889-7,"부산광역시 금정구 부곡로 3, 1~2층 (부곡동)",46311.0,389902.9114,192926.6937,35.21764872145796,129.08643668661963
아인스동물병원,02-2213-0075,128.78,서울특별시 동대문구 장안동 435-6번지,"서울특별시 동대문구 장한로 44, 1층 (장안동)",2643.0,205883.9948,451422.9783,37.565070521886575,127.0673870661698
삼성동물병원,556-8575,0.0,대구광역시 서구 내당동 245-16번지,대구광역시 서구 서대구로 37 (내당동),41851.0,340499.011,263470.6495,35.861354633064856,128.55628067929788
안양본동물의료센터,031-396-8275,494.4,경기도 안양시 동안구 관양동 900-9,경기도 안양시 동안구 시민대로 370 (관양동),14058.0,197413.825,432617.7275,37.39564946387181,126.97158341823143
헬리오동물병원,02-2135-6575,0.0,서울특별시 송파구 가락동 479 헬리오시티,"서울특별시 송파구 송파대로 345, 3B동 28,29호 (가락동, 헬리오시티)",5698.0,209412.1978,443928.7833,37.49751935935091,127.1072263505653
표선동물병원,064-787-7582,0.0,제주특별자치도 서귀포시 표선면 표선리 1867,제주특별자치도 서귀포시 표선면 번영로 3510,63628.0,183927.4557,-17822.82507,33.335612274807325,126.82818067341147
우린동물병원,041-558-8875,0.0,충청남도 아산시 배방읍 장재리 1757,"충청남도 아산시 배방읍 광장로 181, 빅토리아빌 104호",31470.0,209316.5947,366215.6561,36.797285120576525,127.10518497673348
대전본동물병원,042-546-7588,0.0,대전광역시 서구 관저동 1952-3번지 101-1호,"대전광역시 서구 관저로 27, 101-1호 (관저동)",35370.0,229222.6689,310717.0019,36.29676650706124,127.32612687486159
튼튼동물병원,031-372-8333,100.0,경기도 오산시 궐동 632-2번지,"경기도 오산시 궐리사로 69, 구마빌딩 101호 (궐동)",18120.0,205273.6372,406347.1941,37.158932573430135,127.06016170577871
수지성복SL동물병원,031-272-8575,84.32,"경기도 용인시 수지구 성복동 167번지 KCC스위첸 1층 111, 112호","경기도 용인시 수지구 성복1로 62, 1층 111, 112호 (성복동, KCC스위첸)",16852.0,206405.9809,423687.2205,37.31516588338141,127.07305697605781
밀양동물메디컬센터,055-355-7582,204.95,경상남도 밀양시 삼문동 714-7번지,"경상남도 밀양시 미리벌중앙로8길 2, 2층 (삼문동)",50434.0,358561.5033,221983.3121,35.48485995132161,128.7480100474238
보듬 동물병원,051-894-1202,0.0,부산광역시 부산진구 가야동 143-48번지,"부산광역시 부산진구 가야대로 517, 윤정빌딩 (가야동)",47270.0,384774.7988,185717.1296,35.15366271018246,129.0285346036565
내친구동물병원,031-497-4479,50.4,경기도 시흥시 정왕동 2515 배곧프라자,"경기도 시흥시 서울대학로278번길 19-14, 배곧프라자 1층 115호 (정왕동)",15010.0,175894.0792,429822.5527,37.370153532323265,126.72864984619149
골드퍼피동물병원 공릉점,02-971-5955,0.0,서울특별시 노원구 공릉동 596-5,"서울특별시 노원구 동일로 1014, 1층, 2층 (공릉동)",1848.0,206546.7347,457584.8358,37.62058343444468,127.07494293386544
품 동물의료센터,02-812-7585,258.72,서울특별시 동작구 상도1동 623,서울특별시 동작구 양녕로 277-1 (상도1동),6919.0,195455.8205,444687.3629,37.504389945997616,126.94939595013068
우리아이동물메디컬센터,044-867-2727,294.0,세종특별자치시 나성동 738 세종포레뷰1,"세종특별자치시 한누리대로 287, 세종포레뷰1 202~204호 (나성동)",30127.0,222878.2585,332117.5623,36.48979051497664,127.25612535128221
24시 라인동물의료센터,02-381-2475,860.69,경기도 고양시 덕양구 삼송동 291 힐스테이트 삼송역,"경기도 고양시 덕양구 동송로 70, 힐스테이트 삼송역 221,227~231호 (삼송동)",10591.0,190815.458,461119.3423,37.65240483325612,126.89670837869542
리봄동물의료센터,054-251-8275,0.0,경상북도 포항시 북구 장성동 1494-1,"경상북도 포항시 북구 신덕로 281, 1층 (장성동)",37579.0,414783.3482,290171.6157,36.08833385041244,129.3853849050042
아이힐 동물병원,02-561-3375,0.0,서울특별시 강남구 역삼동 838-9 거암빌딩,"서울특별시 강남구 도곡로 115, 거암빌딩 2층 (역삼동)",6253.0,202847.7975,443115.1296,37.49023144249581,127.03298980940679
서울앤탑 동물병원,031-897-7577,341.28,경기도 용인시 수지구 죽전동 1189-1번지 베스트프라자 2층,"경기도 용인시 수지구 현암로 135, 베스트프라자 2층 (죽전동)",16876.0,210956.3322,425555.734,37.33195946817577,127.12441738078567
남산동물병원,374-0325,65.0,전라남도 화순군 화순읍 향청리 56-5번지,전라남도 화순군 화순읍 중앙로 43-1,58118.0,198682.2038,173509.7509,35.06059016073047,126.98636340419202
모란동물병원,031-767-7588,0.0,경기도 광주시 경안동 96-6,경기도 광주시 파발로 161-1 (경안동),12755.0,222305.7379,434716.9932,37.41430097998785,127.25275419951882
온누리동물병원(천안점),041-414-7582,0.0,충청남도 천안시 동남구 봉명동 451,"충청남도 천안시 동남구 쌍용대로 163, 2층 (봉명동)",31148.0,211848.1321,367871.2182,36.812175330025966,127.13357570484534
편안한 동물병원,042-822-8217,57.5,대전광역시 유성구 반석동 621-5 양지타워,"대전광역시 유성구 반석로 32, 양지타워 1층 101호 (반석동)",34069.0,227835.4297,321225.4936,36.39150601112086,127.31105794120485
모모동물병원,0226627975,0.0,서울특별시 강서구 마곡동 798-14번지 205호,"서울특별시 강서구 마곡중앙1로 20, 205호 (마곡동)",7807.0,184443.1214,450710.1779,37.55853427825574,126.82471979754959
해오름동물병원,031-747-0406,0.0,경기도 성남시 중원구 금광동 113,"경기도 성남시 중원구 희망로 402, 지하1층 (금광동)",13192.0,214105.0505,437692.8186,37.441273911578584,127.16017650927607
동물병원 산책,031-773-8275,127.99,경기도 양평군 양평읍 공흥리 731-6,경기도 양평군 양평읍 중앙로 49,12551.0,243689.171,443879.1751,37.49608972369397,127.4948364260145
뉴로동물의료센터,051-711-8253,841.5,부산광역시 연제구 연산동 702-10 진도사옥,"부산광역시 연제구 중앙대로 1084, 진도사옥 2~3층 (연산동)",47596.0,389473.2815,189228.0611,35.184414325168134,129.0808713658409
영종H동물의료센터,0327527515,223.41,인천광역시 중구 중산동 1873-3,"인천광역시 중구 자연대로 47, 스타타워2 101호 (중산동)",22402.0,160923.7217,443038.2785,37.48871432575305,126.55894774497094
겨울나는나비 동물병원,055-853-9101,149.76,경상남도 사천시 용현면 선진리 103-7,"경상남도 사천시 용현면 진삼로 953-6, 2동",52538.0,297182.2896,171932.1793,35.04170202756761,128.06588935492996
이완섭동물병원,063-653-9007,66.0,전북특별자치도 순창군 순창읍 교성리 659-8,전북특별자치도 순창군 순창읍 경천1로 114,56049.0,212902.7088,207662.8531,35.368346083258125,127.14278587032503
웰니스동물병원,031-414-1275,0.0,경기도 안산시 상록구 성포동 590 롯데마트(2층),"경기도 안산시 상록구 항가울로 422, 롯데마트 2층 (성포동)",15299.0,186396.0677,423947.2364,37.31742987315487,126.84731809303108
아너스 동물병원,052-281-3567,291.8,울산광역시 남구 삼산동 1550-12,"울산광역시 남구 화합로 197, 1층 (삼산동)",44705.0,412066.5328,229485.2464,35.542449931723276,129.3391628367633
경주동물메디컬센터,054-727-2475,0.0,경상북도 경주시 성동동 188-10,경상북도 경주시 알천남로 130(성동동),38138.0,400089.9385,263627.1233,35.85241935316071,129.2156804720664
24시도안동물메디컬센터,042-710-1502,0.0,대전광역시 서구 도안동 1789,"대전광역시 서구 계백로 1159, 1층 (도안동)",35368.0,231527.1997,311666.1388,36.30524739107872,127.35182036681203
동물병원 이음,031-213-7572,115.69,경기도 용인시 기흥구 영덕동 994-10 1층,"경기도 용인시 기흥구 흥덕2로75번길 25-3, 1층 (영덕동)",16954.0,206262.2975,419126.9994,37.27407790817954,127.071398047679
마음편한동물메디컬센터,054-931-7582,189.84,경상북도 성주군 성주읍 예산리 860,"경상북도 성주군 성주읍 성주순환로2길 41, 1층",40021.0,315648.5052,270054.1556,35.9239183233766,128.282181728692
나리울동물병원,02-423-5755,0.0,서울특별시 강남구 일원동 743 디에이치 자이 개포,"서울특별시 강남구 영동대로 22, 5동 2층 518~519호 (일원동, 디에이치 자이 개포)",6346.0,206573.6482,443195.1892,37.490934045219156,127.07512016992133
송파 마리동물병원,02-415-7555,0.0,서울특별시 송파구 방이동 115-4 금천빌딩,"서울특별시 송파구 오금로 185, 금천빌딩 1층 (방이동)",5642.0,210092.7364,445214.1799,37.509093601288235,127.1149397221031
원 동물병원,063-653-2002,26.0,전북특별자치도 순창군 순창읍 순화리 513-11,전북특별자치도 순창군 순창읍 금산로 28,56037.0,212134.2808,208797.4803,35.37858229618263,127.13434703542121
몽마르뜨 동물병원,02-595-7588,102.47,서울특별시 서초구 방배동 755-5 오릭스오피스텔 202호,"서울특별시 서초구 방배중앙로 198, 오릭스오피스텔 202호 (방배동)",6552.0,198660.6163,443855.5734,37.49690596490893,126.98564227451757
스텔라동물의료센터,031-522-6675,158.88,"경기도 남양주시 다산동 6060 리더스퀘어 303,4호","경기도 남양주시 다산중앙로123번길 22-8, 리더스퀘어 303,304호 (다산동)",12248.0,213261.0276,458003.0849,37.62427993716199,127.15100382783551
청당동물의료센터,041-552-7599,0.0,충청남도 천안시 동남구 청당동 127-36,"충청남도 천안시 동남구 청당5로 36, 2층 201-202호 (청당동)",31211.0,213560.506,364338.0884,36.780315313943426,127.15270344755375
보경동물병원,055-943-3998,96.9,경상남도 거창군 거창읍 대동리 984-2,"경상남도 거창군 거창읍 소만1길 15-19, 1층",50135.0,283208.496,244020.8852,35.69261802082839,127.92009227184792
로얄동물메디컬센터 본원,070-8660-0904,455.22,서울특별시 중랑구 면목동 146-75,"서울특별시 중랑구 동일로 640, 2층, 3층 (면목동)",2140.0,207017.8153,453914.6398,37.58751219124058,127.08024405768
더엘동물의료센터,062-224-7582,99.84,광주광역시 북구 오치동 1028-27 1층,"광주광역시 북구 서하로 319-1, 1층 (오치동)",61124.0,192235.32,187547.25,35.18708900751666,126.91555779730939
율동물의료센터,02-2135-5611,0.0,서울특별시 강서구 마곡동 800-5,"서울특별시 강서구 공항대로 228, 2층 201,202,203,211,212호 (마곡동)",7806.0,185148.9003,450719.3803,37.558628880630074,126.83270737549141
24시 로운동물의료센터,02)6953-7576,776.0,서울특별시 양천구 목동 807-1,"서울특별시 양천구 등촌로 10, 1~2층 (목동)",7966.0,187932.7309,447620.2662,37.53074703601806,126.86426509632558
한국동물병원,054-335-0896,300.0,경상북도 영천시 금호읍 신월리 220-5,경상북도 영천시 금호읍 금호로 360-22,38874.0,371192.0231,272594.4548,35.93866072295087,128.89789396663227
24시 공감365동물의료센터,031-575-8275,244.73,경기도 남양주시 진접읍 금곡리 1042 엠타워 201호,"경기도 남양주시 진접읍 해밀예당1로 220, 엠타워 201호",12059.0,217778.3586,468642.3266,37.720060056709514,127.2024326515421
메이플동물병원,043-732-7579,169.85,충청북도 옥천군 옥천읍 삼양리 200-28 메이플 동물병원,"충청북도 옥천군 옥천읍 삼양로 40, 메이플 동물병원",29033.0,250771.4079,311888.3859,36.30643035693828,127.56609042663125
동물병원 감동,031-275-8080,70.2,경기도 용인시 기흥구 언남동 412-2 (주)시간과공간,"경기도 용인시 기흥구 구성로 88, (주)시간과공간 1층 102~103호 (언남동)",16919.0,210477.0316,421360.4989,37.29416481984137,127.11895032763135
이루동물병원,031-378-7575,0.0,경기도 화성시 송동 694 동탄린스트라우스더레이크 214호,"경기도 화성시 동탄대로 181, 판매시설A동 214~216호 (송동, 동탄린스트라우스더레이크)",18497.0,209253.3874,407725.1146,37.171317666943395,127.10498208181072
모던동물병원,062-226-0075,144.0,광주광역시 동구 계림동 250-68,"광주광역시 동구 중앙로290번길 2, 1층 (계림동)",61413.0,192716.9285,184264.4313,35.15750290604299,126.92087470805158
이영수 고양이 병원,032-205-0279,0.0,인천광역시 서구 가정동 645-1 301호,"인천광역시 서구 봉오재3로 120, 301,302호 (가정동)",22883.0,171036.847,447258.8879,37.52711427281566,126.67312970541545
힘찬동물메디컬센터,064-805-7585,0.0,제주특별자치도 제주시 아라일동 2476,"제주특별자치도 제주시 연북로 556, 1층 (아라일동)",63236.0,157085.5284,-1014.548577,33.48641648442499,126.5390659378205
하늘동물병원,03180677570,88.24,경기도 수원시 권선구 곡반정동 532-5,"경기도 수원시 권선구 곡반정로 155-1, 2층 (곡반정동)",16670.0,202855.4085,415540.426,37.24177804214297,127.03297197289874
펫사랑동물병원,02)2062-7982,54.0,서울특별시 양천구 목동 917-6 중소기업유통센터(행복한백화점),"서울특별시 양천구 목동동로 309, 중소기업유통센터(행복한백화점) 지하2층 (목동)",7997.0,188977.1711,447466.355,37.5293734491095,126.87608367321214
24시 송도 온 동물의료센터,032-831-7580,104.76,인천광역시 연수구 송도동 92 더샵송도센트럴파크Ⅲ,"인천광역시 연수구 인천타워대로180번길 11, B동 213-215호 (송도동, 더샵송도센트럴파크Ⅲ)",22004.0,167928.2643,431957.7997,37.38915045294761,126.6386298203029
마음 동물병원,031-8067-7559,0.0,경기도 수원시 장안구 이목동 338-6,"경기도 수원시 장안구 이목로 17, 105(일부),106호 (이목동)",16342.0,198459.6595,423178.3121,37.31060072255548,126.98341463578396
늘봄동물병원,031-265-7579,67.0,경기도 용인시 수지구 풍덕천동 660,"경기도 용인시 수지구 수풍로 112, 1층 (풍덕천동)",16828.0,208241.8564,425741.5364,37.333661441571515,127.0937903227561
우리집앞동물병원,0312727582,44.46,경기도 용인시 수지구 죽전동 1188-3 한솔프라자,"경기도 용인시 수지구 현암로 157, 한솔프라자 1층 2호 (죽전동)",16876.0,211180.6136,425550.732,37.331911743306954,127.1269480093264
오송 봄봄 동물병원,031-715-7560,164.0,충청북도 청주시 흥덕구 오송읍 봉산리 1003,"충청북도 청주시 흥덕구 오송읍 오송생명8로 175, 오송 다니엘플라자 2층 204-2, 205호",28222.0,228384.5704,346465.1703,36.61893412638036,127.31810346427969
라온 동물 메디컬센터,054-510-8100,900.37,경상북도 구미시 송정동 33-8,경상북도 구미시 송정대로 35 (송정동),39285.0,320776.4775,291666.0494,36.11801730281278,128.34228071723305
바른동물병원,033-643-0750,0.0,강원특별자치도 강릉시 포남동 1133-3,"강원특별자치도 강릉시 경강로2223번길 2, 1층 (포남동)",25549.0,367916.9437,475102.6148,37.763039134331855,128.90635319803852
황금누리동물병원,053-763-7599,0.0,대구광역시 수성구 황금동 92 골든게이트 1층,"대구광역시 수성구 청호로 297, 골든게이트 1층 (황금동)",42111.0,347961.846,261675.4038,35.844084196772386,128.63854036890427
바른동물메디컬센터,02-6956-3383,101.26,"서울특별시 서대문구 남가좌동 390 래미안 루센티아 상가동 19,20호","서울특별시 서대문구 거북골로 100, 상가동 19,20호 (남가좌동, 래미안 루센티아)",3689.0,192641.1459,452652.0599,37.57613286230113,126.91748282899707
본바른 동물의료센터,031-522-5778,139.4,경기도 남양주시 별내동 1006-3,"경기도 남양주시 별내중앙로 24, 201호 (별내동)",12113.0,211072.0986,460349.6078,37.64545034756889,127.12624375722069
광주첨단YB동물병원,062-574-1888,0.0,광주광역시 북구 신용동 860 첨단2지구 대성베르힐 A동 206~7호,"광주광역시 북구 첨단연신로 100, 첨단2지구 대성베르힐 A동 206~7호 (신용동)",61085.0,187648.3028,189734.6122,35.20675853494676,126.86516272626801
호호동물병원,064-748-7555,0.0,제주특별자치도 제주시 연동 1360-4,"제주특별자치도 제주시 과원로 36, 지하2층 1호 (연동)",63141.0,152239.7253,-2153.936444,33.475938697608896,126.48698814163409
더블리스동물의료센터,686-0200,4660.0,전라남도 여수시 학동 68-21,"전라남도 여수시 시청로 15, 1층 101호 (학동)",59673.0,260577.8511,140722.7388,34.763257393695376,127.66249213199063
탕정동물의료센터,041-533-7581,0.0,충청남도 아산시 탕정면 매곡리 1478,"충청남도 아산시 탕정면 매곡한들1길 11, 202호",31465.0,208084.9185,364573.2624,36.78249663472807,127.09136711796381
성수 숲속 피부과 동물병원,0222052975,0.0,서울특별시 성동구 성수동1가 685-696 갤러리아 포레 지하1층 B114호,"서울특별시 성동구 서울숲2길 32-14, 지하1층 B114호 (성수동1가, 갤러리아 포레)",4769.0,203684.2812,449280.9752,37.54578255255379,127.04247861461285
포레스트(4rest) 동물메디컬센터,063-247-8875,0.0,전북특별자치도 전주시 덕진구 송천동2가 453-20,"전북특별자치도 전주시 덕진구 동부대로 1139, 2층 (송천동2가)",54828.0,210974.5948,263260.9216,35.86946511595137,127.12232094461166
로고스 동물병원,031-323-5511,0.0,경기도 용인시 처인구 역북동 464-9,"경기도 용인시 처인구 낙은로 32, 1층 (역북동)",17045.0,217562.6686,415377.1553,37.240146886604876,127.19872106296165
웰케어 동물건강검진센터·동물한방재활센터,051-711-7514,0.0,부산광역시 남구 대연동 29-1,"부산광역시 남구 수영로 364, 3층 (대연동)",48509.0,391808.9157,184281.9547,35.13941969930763,129.1053489904105
다봄 동물병원,02-456-7775,139.53,서울특별시 광진구 구의동 254-36 우남빌딩 1층,"서울특별시 광진구 자양로 163, 우남빌딩 (구의동)",5024.0,207334.3524,448890.471,37.542242595019225,127.08377813091074
돌봄동물병원,031-687-8749,79.7,경기도 안양시 동안구 관양동 1591-12 평촌자이엘라,"경기도 안양시 동안구 관평로 183, 평촌자이엘라 107,108호 (관양동)",14067.0,196348.6236,432336.5227,37.393112110773785,126.95955532774202
펫웨이브 동물의료센터,02-423-1233,214.44,서울특별시 송파구 송파동 15-6,서울특별시 송파구 송파대로 450 (송파동),5625.0,209317.0122,444964.2896,37.50685019770772,127.10616296599582
아침동물병원,031-8019-5575,103.0,경기도 용인시 수지구 성복동 409-12,"경기도 용인시 수지구 성복2로 238, 1층 (성복동)",16806.0,205373.4195,424193.1548,37.31973095349894,127.06141214682506
광진 한나동물병원,02-2088-7119,118.2,서울특별시 광진구 구의동 202-3 1층,"서울특별시 광진구 광나루로 582, 세종빌딩 1층 (구의동)",5033.0,208181.5174,448984.8483,37.54308585985416,127.09336504422666
동물병원 더 메이,042-861-7588,0.0,대전광역시 유성구 도룡동 385-16 타워코리아나 주상복합 108호,"대전광역시 유성구 대덕대로 594, 108호 (도룡동, 타워코리아나 주상복합)",34121.0,233935.6203,320627.3737,36.385920494703996,127.3790246035376
24시 해든동물의료센터 의정부점,031-951-9499,997.62,경기도 의정부시 의정부동 378,경기도 의정부시 평화로 448 (의정부동),11700.0,204186.385,469943.775,37.73194754225486,127.04827682316352
동물병원 누리에뜰,02-364-3517,0.0,서울특별시 마포구 아현동 331-11,서울특별시 마포구 신촌로 248 (아현동),4115.0,195806.5336,450529.1465,37.55702573206792,126.95332850165354
산들동물병원,02-435-7582,84.4,서울특별시 중랑구 망우동 584 신내역 프라디움 더 테라스,"서울특별시 중랑구 용마산로 670, C동 129,130호 (망우동, 신내역 프라디움 더 테라스)",2057.0,208947.0723,456501.7351,37.61080486986173,127.1021186388994
치즈동물병원,0261807575,0.0,경기도 부천시 소사구 옥길동 777-4 서영아너시티1차,"경기도 부천시 소사구 범안로 227, 서영아너시티1차 3층 8,9호 (옥길동)",14789.0,183359.3353,440015.3656,37.46215584931367,126.81269675644933
라온펫동물병원,6278875,276.17,대전광역시 동구 홍도동 9-4,대전광역시 동구 계족로 405 (홍도동),34553.0,238665.7568,316417.3388,36.3478036607061,127.43153375840913
24시 바덴동물메디컬,0627102475,404.92,광주광역시 광산구 월계동 868-7,"광주광역시 광산구 임방울대로 790, 1층 (월계동)",62276.0,185782.5225,190898.29,35.21722247197867,126.84465272585906
별담동물병원,043-715-3255,105.95,"충청북도 청주시 흥덕구 오송읍 봉산리 798 오송역 파라곤 센트럴시티 상가 227동 401,2호","충청북도 청주시 흥덕구 오송읍 오송생명7로 151, 상가 227동 401, 402호 (오송역 파라곤 센트럴시티)",28222.0,228014.8173,346824.282,36.622181064179586,127.31398316710414
동물병원 The 개치동,051-757-0590,46.41,부산광역시 수영구 민락동 181-169 해링턴타워광안 디오션오피스텔,"부산광역시 수영구 광안해변로284번길 38, 해링턴타워광안 디오션오피스텔 101동 114호 (민락동)",48283.0,393553.2295,185974.2765,35.15432934990593,129.124872148506
큰별동물의료원,051-903-7588,0.0,부산광역시 동래구 온천동 791-12 아크원빌딩,"부산광역시 동래구 금강로8번가길 9, 아크원빌딩 1층 (온천동)",47729.0,388615.6919,192241.6794,35.21172099806615,129.07215115807952
아빠 동물병원,032-833-4642,49.92,인천광역시 연수구 송도동 397-5 힐스테이트 레이크 송도3차,"인천광역시 연수구 아카데미로 442, 106호 (송도동, 힐스테이트 레이크 송도3차)",22026.0,166087.4456,432444.0386,37.393465831933874,126.61782105455175
한결동물병원,055-388-7975,0.0,경상남도 양산시 물금읍 범어리 2686-10,"경상남도 양산시 물금읍 화합10길 19, 1층",50610.0,382933.0066,205227.0316,35.329741720710494,129.01266958386972
리틀버드서울 버드앤주클리닉,02-403-7588,98.31,서울특별시 송파구 가락동 160-3 다윤빌딩,"서울특별시 송파구 오금로 332, 다윤빌딩 2층 (가락동)",5818.0,211290.3066,444364.0731,37.501420393464734,127.128471530198
수사랑 동물병원,477-0882,0.0,대전광역시 유성구 노은동 496-10번지 102호,"대전광역시 유성구 노은서로108번길 47, 102호 (노은동)",34089.0,228413.9173,318807.823,36.36970213679364,127.31741765891792
이솜동물병원,042-719-8275,1199.0,대전광역시 유성구 지족동 901-5 계룡프라자 204호,"대전광역시 유성구 노은로 166, 계룡프라자 2층 204호 (지족동)",34086.0,228502.245,319337.4078,36.3744719231199,127.31842124576154
신성동물병원,042-863-0700,0.0,대전광역시 유성구 신성동 209-10번지,대전광역시 유성구 신성로62번길 30 (신성동),34117.0,231208.0911,320846.015,36.38798299243956,127.34863450177129
대전야생동물구조관리센터 동물병원,0428217930,0.0,대전광역시 유성구 궁동 220 충남대학교,"대전광역시 유성구 대학로 99, 충남대학교 (궁동)",34134.0,230825.0037,318805.3745,36.36960600892234,127.34428409048564
숲 동물의료센터,0428267584,0.0,대전광역시 유성구 봉명동 664,대전광역시 유성구 한밭대로492번길 16-8 (봉명동),34184.0,231585.4717,317650.4972,36.35917415577241,127.35271112591884
베스트 동물병원,042-822-7515,0.0,대전광역시 유성구 상대동 441-1번지 102호,"대전광역시 유성구 월드컵대로 300, 102호 (상대동)",34198.0,229865.3991,316431.3746,36.348242716737744,127.33350044014782
행복드림 동물병원,822-8675,0.0,대전광역시 유성구 지족동 1025-2 101호,"대전광역시 유성구 지족로 292, 101호 (지족동)",34073.0,227659.2497,320780.9702,36.38750523664509,127.30907844963157
행복한 동물병원,936-1075,0.0,대전광역시 유성구 송강동 187-9번지,대전광역시 유성구 송강로 4 (송강동),34009.0,234642.1211,325784.5733,36.43236920701676,127.38712828911693
송강동물병원,934-7588,0.0,대전광역시 유성구 송강동 186-7번지,대전광역시 유성구 구즉로52번길 46 (송강동),34009.0,234675.421,325828.8357,36.43276687391021,127.38750161783025
테크노 웰 동물병원,042-931-0963,106.0,대전광역시 유성구 관평동 829,대전광역시 유성구 관들1길 53 (관평동),34017.0,234837.0986,325023.3574,36.42550252842452,127.389268522814
쿠쿠펫길동물병원,042-825-7587,198.24,대전광역시 유성구 원신흥동 491-2 2층,"대전광역시 유성구 봉명로 27-7, 2층 (원신흥동)",34190.0,230695.8219,315784.5132,36.342387405826436,127.3427257925084
하모니동물병원,042-934-8575,246.4,대전광역시 유성구 관평동 933번지,대전광역시 유성구 관평2로 20 (관평동),34018.0,234895.2379,324951.5248,36.42485310719913,127.38991359922892
충남대학교 수의과대학 부속동물병원,821-6704,0.0,대전광역시 유성구 궁동 220 충남대학교,"대전광역시 유성구 대학로 99, 충남대학교 (궁동)",34134.0,230825.0037,318805.3745,36.36960600892234,127.34428409048564
유성동물병원,822-1952,0.0,대전광역시 유성구 장대동 317-13번지,대전광역시 유성구 유성대로822번길 36-20 (장대동),34136.0,230344.4037,318250.7043,36.36462280803448,127.33890723345431
노은동물병원,477-1175,0.0,대전광역시 유성구 지족동 910-24번지,대전광역시 유성구 은구비로 46 (지족동),34086.0,228655.3612,319476.9469,36.37572485070401,127.32013264186467
늘푸른 동물병원,826-7509,94.67,대전광역시 유성구 지족동 980-9,대전광역시 유성구 지족로349번길 40-12(지족동),34071.0,228319.017,320780.8643,36.38748512120791,127.31643186724045
조은동물병원,867-7588,100.0,대전광역시 유성구 전민동 385-5번지,대전광역시 유성구 엑스포로 459 (전민동),34052.0,236222.9696,321900.3146,36.39730826141314,127.4045766752097
닥터펫 플러스 동물병원,042-585-7533,88.9,대전광역시 중구 산성동 292-24,대전광역시 중구 산성로 3 (산성동),35011.0,234899.4959,311737.256,36.30577235861448,127.38936963378447
마이펫 동물병원,042-581-7555,0.0,대전광역시 중구 유천동 185-42번지,대전광역시 중구 계백로 1608 (유천동),34966.0,235741.2906,313150.7728,36.31847961447055,127.39880658109526
제일동물병원,042-252-7575,121.58,대전광역시 중구 문창동 75-116번지,"대전광역시 중구 충무로 155, 제일동물병원 (문창동)",34930.0,238861.3634,313368.8992,36.32032474369418,127.43356102624753
푸우동물병원,042-223-5775,60.2,대전광역시 중구 중촌동 398-6번지,대전광역시 중구 동서대로 1433-1 (중촌동),34813.0,237164.5499,315099.5618,36.335987490399056,127.4147480430633
청운동물병원,042-522-0005,85.9,대전광역시 중구 유천동 324-19번지,대전광역시 중구 태평로 36 (유천동),34887.0,235207.0889,313317.2566,36.3199995201911,127.39286545360353
서울동물병원,042-585-6767,0.0,대전광역시 중구 산성동 279-7번지,대전광역시 중구 보문산로64번길 4 (산성동),35055.0,234735.3173,311620.8916,36.304729644397504,127.38753654217828
다사랑동물병원,042-628-0075,328.68,대전광역시 동구 가양동 31-7번지,대전광역시 동구 비래서로 54 (가양동),34528.0,240342.925,317112.78,36.354001914444176,127.45025278940776
웰니스 동물병원,042-624-6275,163.0,대전광역시 동구 용전동 63-3 대전복합터미널(서관) 3층,"대전광역시 동구 동서대로 1689, 대전복합터미널(서관) 3층 (용전동)",34551.0,239122.6384,316705.6937,36.350383744009065,127.43663772484507
금비동물병원,042-526-4672,52.0,대전광역시 중구 오류동 164-5,대전광역시 중구 계백로 1697-1 (오류동),34909.0,236563.4678,313478.2817,36.321400202236184,127.40797728650023
굿모닝동물병원,042-636-9645,35.0,대전광역시 중구 부사동 129-7번지,대전광역시 중구 대종로 309 (부사동),35023.0,238940.3607,312599.7665,36.31339049140887,127.43440239459197
솔펫 동물병원,042-622-7525,75.69,대전광역시 동구 자양동 141-1,"대전광역시 동구 동대전로 141 (자양동, 우송 제2교육원)",34608.0,239963.5543,314977.7082,36.33477754769368,127.44591706026657
지동범 동물 안과 치과병원,515-7450,0.0,부산광역시 금정구 부곡동 255-4 행복한빌딩,"부산광역시 금정구 부곡로 184, 행복한빌딩 1,2층 (부곡동)",46269.0,390375.2841,194559.5706,35.23226731815169,129.09199882688011
금빛동물수술센터,515-5179,155.47,부산광역시 금정구 장전동 615-6,"부산광역시 금정구 식물원로 38, 주현빌딩 2층 (장전동)",46297.0,389697.6318,193741.7614,35.22502922669003,129.08437115194485
한독동물병원,531-2852,0.0,부산광역시 금정구 서동 208-26번지,부산광역시 금정구 서동로 200 (서동),46328.0,391881.9503,192564.799,35.21401283135609,129.1080744277464
수종합동물병원,582-9335,0.0,부산광역시 금정구 장전동 219-6번지,부산광역시 금정구 금강로 340 (장전동),46283.0,389869.602,195239.2125,35.23848494293634,129.08660412085058
남산동물병원,517-8275,80.0,부산광역시 금정구 남산동 321-12 B동 202호,부산광역시 금정구 금강로 703-3 (남산동),46221.0,390000.7229,198773.9895,35.27029930950775,129.0888600845071
구서동물병원,512-1661,90.0,부산광역시 금정구 구서동 258-22번지,부산광역시 금정구 금강로 454 (구서동),46243.0,390042.8788,196306.4151,35.24806489021431,129.08875291648465
동물병원 산책,714-0209,113.4,부산광역시 금정구 부곡동 224-1,부산광역시 금정구 수림로 25 (부곡동),46276.0,390130.9936,195312.2119,35.2390929882089,129.08949077787858
서동 동물메디컬센터,525-7810,135.56,부산광역시 금정구 서동 204-12,"부산광역시 금정구 서동로175번길 11, 2층 (서동)",46321.0,391719.8534,192660.6626,35.21490726403973,129.10631763059686
제일2차동물메디컬센터,516-1175,65.0,부산광역시 금정구 부곡동 24-6,부산광역시 금정구 중앙대로 1754 (부곡동),46253.0,390473.3881,195515.8363,35.240862182464355,129.09329703344758
제일동물진단영상센터,516-1175,160.0,부산광역시 금정구 부곡동 24-6,부산광역시 금정구 중앙대로 1754 (부곡동),46253.0,390473.3881,195515.8363,35.240862182464355,129.09329703344758
쿨펫동물병원 이마트금정점,518-1360,0.0,부산광역시 금정구 구서동 319-6번지,"부산광역시 금정구 중앙대로1841번길 24 (구서동, E마트금정점)",46233.0,390161.6934,196690.2227,35.25149948529061,129.0901462250077
장 동물병원,262-7582,42.0,부산광역시 사하구 다대동 935-11번지,부산광역시 사하구 윤공단로56번길 55 (다대동),49493.0,379663.3476,175088.2304,35.05883985194218,128.97016675694047
사하동물병원,051-206-1891,83.25,부산광역시 사하구 당리동 373-4,부산광역시 사하구 낙동대로 356 (당리동),49345.0,380363.7722,179842.5875,35.1015436423837,128.9788738092765
박 동물병원,202-7002,0.0,부산광역시 사하구 당리동 325-1번지,부산광역시 사하구 낙동대로 407 (당리동),49411.0,379877.2213,180029.7204,35.103316282278115,128.97358119074306
덕천동물의료센터,332-8060,0.0,부산광역시 북구 덕천동 375-5,부산광역시 북구 만덕대로 119 (덕천동),46554.0,383674.2857,192327.6662,35.21341128905713,129.01793501346594
사상동물병원,322-3026,0.0,부산광역시 사상구 괘법동 555-26번지,부산광역시 사상구 사상로 153 (괘법동),46974.0,380983.7697,186277.2017,35.159396656909365,128.98707677693588
부산동물병원 제넷,313-2559,0.0,부산광역시 사상구 주례동 413-5 아이스테이트2,"부산광역시 사상구 가야대로 283, 아이스테이트2 4층 (주례동)",47003.0,382521.4591,185354.9561,35.15081133873589,129.003739924274
신병헌동물병원,304-6455,0.0,부산광역시 사상구 덕포동 429-13번지,부산광역시 사상구 사상로 261 (덕포동),46955.0,380490.0777,187240.8032,35.1681655768357,128.98187194416758
모라동물병원,325-1638,0.0,부산광역시 사상구 모라동 1338-8번지,부산광역시 사상구 백양대로 957 (모라동),46926.0,381359.1447,189866.9462,35.19166575710332,128.99198257533322
개금동물병원,324-9954,0.0,부산광역시 사상구 주례동 23-2번지,부산광역시 사상구 가야대로 367 (주례동),47005.0,383345.2004,185460.5855,35.151613165325394,129.0127978742457
엄궁종합동물병원,051-316-7597,0.0,부산광역시 사상구 엄궁동 25-25,부산광역시 사상구 대동로 18(엄궁동),47035.0,379809.7725,183277.9206,35.13258893492909,128.97354707326045
고은동물병원,311-7578,398.66,부산광역시 사상구 모라동 459-2번지,부산광역시 사상구 모라로 107 (모라동),46928.0,381307.1941,189290.726,35.18648450695692,128.9912859176148
쿨펫동물병원,051-314-7582,0.0,부산광역시 사상구 엄궁동 690번지 롯데마트엄궁점,"부산광역시 사상구 낙동대로 733, 롯데마트엄궁점 2층 (엄궁동)",47032.0,379352.8056,182712.0791,35.12757314463057,128.9684135921573
시민동물병원,464-5975,0.0,부산광역시 동구 초량동 287-9번지,부산광역시 동구 초량상로 84-1 (초량동),48814.0,385778.9416,181909.9164,35.11918302291183,129.03869312052916
백양동물병원,332-7588,0.0,부산광역시 북구 만덕동 839-1번지,부산광역시 북구 덕천로 280 (만덕동),46611.0,385250.1351,191889.103,35.20917140379274,129.03513291575433
노아동물병원,343-7588,150.5,부산광역시 북구 화명동 2337번지 화명2차동원로얄듀크비스타,"부산광역시 북구 금곡대로 175 (화명동, 화명2차동원로얄듀크비스타)",46541.0,382841.0071,193563.9531,35.224699685245476,129.0090631869313
21세기종합동물병원,365-0075,0.0,부산광역시 북구 덕천동 383-3번지,부산광역시 북구 만덕대로 34 (덕천동),46577.0,382847.4897,192011.4705,35.21071387731543,129.00878990564317
장원동물병원,342-3739,0.0,부산광역시 북구 구포동 669-2번지 장원동물병원,"부산광역시 북구 시랑로 1, 장원동물병원 (구포동)",46599.0,382479.7046,191404.0266,35.20530893209957,129.0046187517384
해든동물병원,051)343-3834,112.18,부산광역시 북구 구포동 935-2번지,부산광역시 북구 백양대로 1053 (구포동),46649.0,381760.255,190742.6321,35.19948150066402,128.9965769840338
카이저 동물병원,051361-7582,132.33,부산광역시 북구 화명동 898-19 새마을금고,"부산광역시 북구 금곡대로 182, 새마을금고 (화명동)",46539.0,382940.7371,193602.7466,35.22503096587593,129.01016659813249
그랜드 동물병원,365-7588,177.41,부산광역시 북구 금곡동 1880-12 해림빌딩,"부산광역시 북구 학사로 299, 해림빌딩 (금곡동)",46519.0,383111.1017,196111.9007,35.24760203239674,129.01259481132323
유동물의료센터,343-7566,289.0,부산광역시 북구 덕천동 381-7,부산광역시 북구 만덕대로 41 (덕천동),46548.0,382906.3354,192089.3221,35.21140444508604,129.00945305267203
더힐동물병원,051-341-3344,0.0,부산광역시 북구 덕천동 373-1 삼정그린코아아파트 3동 105호,"부산광역시 북구 만덕대로 147, 삼정그린코아아파트 3동 105호 (덕천동)",46554.0,383934.8365,192378.5329,35.21382180879725,129.02080617464767
영도동물병원,051-415-2566,991.65,부산광역시 영도구 영선동1가 20-4번지,부산광역시 영도구 태종로 111 (영선동1가),49036.0,386238.8453,178803.0597,35.09111192683497,129.0430369353037
태종동물병원,051-405-9493,145.92,부산광역시 영도구 동삼동 266-3번지,부산광역시 영도구 동삼로 80 (동삼동),49097.0,388779.0746,177680.767,35.08053049429093,129.07062072458854
센트럴종합동물병원,415-2468,133.32,부산광역시 영도구 대교동1가 143번지,부산광역시 영도구 태종로 78 (대교동1가),49045.0,385893.7103,178909.5597,35.09213492000921,129.0392783127648
천동물병원,414-7588,0.0,부산광역시 영도구 청학동 62-60번지 한라청학아파트,"부산광역시 영도구 태종로 430, 한라청학아파트 2층 (청학동)",49088.0,388500.1629,178645.3397,35.089271281615694,129.06778363241284
반여착한동물병원,051-927-7575,110.0,부산광역시 해운대구 반여동 1465-57번지 농협반여동지점,"부산광역시 해운대구 선수촌로 65-19, 농협반여동지점 2층 (반여동)",48038.0,392797.4651,190989.3748,35.19964717898326,129.11775425724275
큰마음동물메디컬센터,051-710-2004,0.0,부산광역시 해운대구 중동 1262-1,"부산광역시 해운대구 해운대해변로357번길 17, 4~8층 (중동)",48096.0,397433.6619,187207.142,35.16468027782685,129.16772392011276
닥터주 동물병원,731-7530,0.0,부산광역시 해운대구 좌동 1340-3번지 피렌체오피스텔 204호,"부산광역시 해운대구 좌동순환로402번길 8, 204호 (좌동, 피렌체오피스텔)",48104.0,398351.677,187037.6461,35.162973082951225,129.17775237661834
사랑의동물병원,051-702-1626,0.0,부산광역시 해운대구 좌동 1407-2번지 영풍프라자 302호,"부산광역시 해운대구 좌동순환로 173, 영풍프라자 302호 (좌동)",48075.0,398088.8767,188716.5782,35.178147036458974,129.1752725502592
마리동물병원,051-702-5750,0.0,부산광역시 해운대구 좌동 1473-2번지 엘리움 306호,"부산광역시 해운대구 해운대로 794, 엘리움 306호 (좌동)",48104.0,398155.6608,187681.5736,35.168811575312226,129.1757568726698
누리동물병원,051-701-7599,0.0,부산광역시 해운대구 송정동 85-1,부산광역시 해운대구 송정2로13번길 46 (송정동),48069.0,400877.3254,190630.1977,35.19482958995167,129.20632763290143
달맞이 호두네 동물병원,746-7077,0.0,부산광역시 해운대구 중동 1512번지 해운대 달맞이 유림 노르웨이숲 상가동 305호,"부산광역시 해운대구 달맞이길65번길 33, 상가동 3층 305호 (중동, 해운대 달맞이 유림 노르웨이숲)",48117.0,398058.7221,186789.9814,35.16080005781161,129.17447984945835
해운대 플러스동물병원,915-8275,0.0,부산광역시 해운대구 좌동 1315 해운대삼정코아주상복합,"부산광역시 해운대구 세실로 48, 상가동 1-2, 2-2호 (좌동, 해운대삼정코아주상복합)",48110.0,398407.0433,187784.8439,35.16969218887184,129.17853906807593
아이센텀 동물메디컬센터,746-0075,489.3,부산광역시 해운대구 우동 1488 대우월드마크센텀아파트,"부산광역시 해운대구 센텀동로 25, B동 204호 (우동, 대우월드마크센텀아파트)",48059.0,394112.5249,187887.9317,35.17145851637164,129.131455632416
화목종합동물병원,704-4376,108.0,부산광역시 해운대구 좌동 1315번지 해운대삼정코아복합상가 206호,"부산광역시 해운대구 세실로 48, 206호 (좌동)",48110.0,398407.0433,187784.8439,35.16969218887184,129.17853906807593
킴스동물병원,728-2236,0.0,부산광역시 기장군 정관읍 매학리 713-3번지,부산광역시 기장군 정관읍 정관로 565,46015.0,397801.2386,204661.7615,35.321820551282116,129.17595015083242
해운대조은동물병원,746-7775,58.32,부산광역시 해운대구 우동 529-2,부산광역시 해운대구 해운대로 624 (우동),48095.0,396661.6112,187066.9015,35.16356830156704,129.15922232621
센텀동물종합병원,744-6336,40.3,부산광역시 해운대구 재송동 1200 센텀파크아파트상가 6동 205호,"부산광역시 해운대구 센텀중앙로 145, 205호 (재송동)",48050.0,393239.2379,188619.1496,35.17821297055346,129.1220470706885
토마스동물병원,544-0775,140.0,부산광역시 해운대구 반송동 20-16번지,부산광역시 해운대구 반송로 922 (반송동),48004.0,396052.8154,194703.1301,35.23246748561878,129.15435962039786
조앤박동물병원,051-702-7511,165.0,부산광역시 해운대구 좌동 985-2번지,"부산광역시 해운대구 양운로 108, 2층 (좌동)",48079.0,397990.4695,188084.8798,35.17247668990621,129.1740415641757
갑을동물병원,784-7844,151.0,부산광역시 해운대구 재송동 1098-1번지 14통2반 현대맨션 303호,"부산광역시 해운대구 재반로 148, 32호 (재송동)",48053.0,393214.9667,189314.4738,35.18448064517806,129.12194352420252
마린시티 종합동물병원,747-7407,0.0,부산광역시 해운대구 우동 1435번지 벽산이오렌지프라자,"부산광역시 해운대구 마린시티3로 23, 벽산이오렌지프라자 333~336호 (우동)",48118.0,395560.2205,186273.7691,35.156639040411946,129.1469541609182
BS조은동물병원,544-7588,66.0,부산광역시 해운대구 반송동 62-508번지,부산광역시 해운대구 윗반송로 73 (반송동),48007.0,396298.3028,194496.4019,35.23055749592318,129.15700521799144
온누리동물병원,051-701-7555,68.0,부산광역시 해운대구 좌동 1443-7번지 삼정프라자 303호,"부산광역시 해운대구 좌동순환로 309, 303호 (좌동)",48113.0,398833.568,187648.429,35.1683792958565,129.18318478659276
장산동물병원,529-5388,124.9,부산광역시 해운대구 반여동 1629-5번지,"부산광역시 해운대구 반여로 96, 1층 (반여동, 영풍빌딩)",48036.0,393310.0757,191056.546,35.200153734106486,129.1233951122627
스펀지동물병원,051-746-1075,0.0,부산광역시 해운대구 우동 586-23번지,부산광역시 해운대구 해운대로 658-1 (우동),48095.0,396927.881,187259.8968,35.16525455858031,129.1621888560825
로이종합동물병원,051-742-7975,135.3,부산광역시 해운대구 재송동 1200,"부산광역시 해운대구 센텀중앙로 145, 202호 (재송동, 센텀파크상가2동)",48050.0,393239.2379,188619.1496,35.17821297055346,129.1220470706885
거제동물병원,862-8668,0.0,부산광역시 연제구 거제동 608-18번지,부산광역시 연제구 거제대로 146 (거제동),47546.0,388481.6072,188882.0699,35.18148414819476,129.06991196836958
문현동물병원,634-4017,49.58,부산광역시 남구 문현동 248-21번지,부산광역시 남구 수영로 38 (문현동),48457.0,388762.2663,183880.0007,35.13637464394027,129.07184881031034
용호동물병원,628-0855,0.0,부산광역시 남구 용호동 368-4번지 목련아파트,"부산광역시 남구 용호로123번길 5 (용호동, 목련아파트)",48578.0,392505.2154,182296.1227,35.121399560103534,129.11252236771958
청조동물병원,503-0688,126.0,부산광역시 연제구 연산동 300-3번지 2통2반,부산광역시 연제구 온천천남로 4 (연산동),47559.0,390401.3859,190192.3725,35.19292503501776,129.09127667176102
헬로동물병원,051-627-1275,228.48,부산광역시 남구 용호동 957-1번지 힐탑탑플레이스 A동 403호,"부산광역시 남구 분포로 115, 힐탑탑플레이스 A동 403호 (용호동)",48515.0,392515.6897,183481.9411,35.132078771548365,129.11291296120174
망미동물병원,753-7580,105.0,부산광역시 연제구 연산동 2235-8번지,부산광역시 연제구 과정로 84 (연산동),47573.0,391900.6472,188657.6668,35.17881621650898,129.10737081619138
우암동물병원,636-5242,94.5,부산광역시 남구 감만동 46-1번지 우암 자유 4차 아파트 상가동 109호,"부산광역시 남구 석포로 7, 상가동 109호 (감만동, 우암 자유 4차 아파트)",48489.0,389680.6778,182339.0175,35.12232150116193,129.08156631330797
25시 동물병원,635-0402,0.0,부산광역시 남구 문현동 359-21번지,부산광역시 남구 수영로 34 (문현동),48457.0,388721.0053,183893.2178,35.13650143083955,129.07139938488484
튼튼동물병원,0516217555,0.0,부산광역시 남구 대연동 39-22,"부산광역시 남구 수영로334번길 3, 2층 (대연동)",48509.0,391546.8499,184145.7671,35.13824286418,129.10244377714827
메트로동물병원,051-623-7588,94.26,"부산광역시 남구 용호동 958 빌리브센트로 B동 B227,호","부산광역시 남구 분포로 61, 빌리브센트로 B동 B227,B228호 (용호동)",48515.0,392463.2213,183403.4999,35.13138224098459,129.11231943271895
조양래 동물의료센터,627-2885,252.0,부산광역시 남구 대연동 1746-5 호수약국,"부산광역시 남구 수영로 224-1, 호수약국 (대연동)",48492.0,390524.5493,183746.2824,35.13483837685716,129.09114185299796
해온동물병원,051)612-7552,304.75,부산광역시 남구 용호동 554-1번지,부산광역시 남구 용호로 233 (용호동),48593.0,392414.0191,181186.1114,35.111418566482165,129.11126471303967
다온 동물병원,051-622-2171,0.0,부산광역시 남구 대연동 1858 대연힐스테이트푸르지오,"부산광역시 남구 수영로 345, 115동 124,125호 (대연동, 대연힐스테이트푸르지오)",48432.0,391411.4502,184553.6728,35.14194281894293,129.10105344800021
UN동물의료센터,051-624-2475,349.01,부산광역시 남구 대연동 1745-9,부산광역시 남구 수영로 221 (대연동),48445.0,390487.343,183799.2048,35.13532211578276,129.09074606933424
피정현 동물병원,864-7582,102.8,부산광역시 연제구 연산동 581-4번지,"부산광역시 연제구 거제천로 258 (연산동, 월드빌스포츠센터)",47518.0,389856.5724,190029.7107,35.19156290680516,129.08526111677327
부산동물메디컬센터,868-7591,984.46,부산광역시 연제구 거제동 2-7,부산광역시 연제구 거제대로 278 (거제동),47522.0,389195.6262,189929.6,35.19078576856404,129.0779858234919
다솜고양이메디컬센터,051)636-7582,0.0,부산광역시 남구 문현동 403-7 다솜 동물 병원,"부산광역시 남구 수영로13번길 3, 다솜 동물 병원 (문현동)",48415.0,388526.2039,183992.3288,35.13743067155469,129.06928590260375
지경희동물병원,051)704-0220,0.0,부산광역시 남구 용호동 532-19번지,부산광역시 남구 용호로 199 (용호동),48591.0,392400.4891,181526.932,35.11449108683204,129.11119555838079
다솜동물메디컬센터,051-632-7580,301.59,부산광역시 남구 문현동 403-7 다솜 동물 병원,"부산광역시 남구 수영로13번길 3, 다솜 동물 병원 (문현동)",48415.0,388526.2039,183992.3288,35.13743067155469,129.06928590260375
토곡동물병원,051-759-8669,92.7,부산광역시 연제구 연산동 399-12,부산광역시 연제구 과정로 234-1 (연산동),47565.0,391356.083,189652.149,35.187877718326874,129.10162703402605
MS동물병원,868-6631,0.0,부산광역시 연제구 연산동 306-28,"부산광역시 연제구 과정로348번길 2, 1층 (연산동)",47559.0,390326.6529,189976.7107,35.19099661630443,129.09040690147768
이룸동물병원,051-868-0075,107.3,부산광역시 연제구 연산동 1948-7,부산광역시 연제구 연수로 140 (연산동),47610.0,389968.7895,188130.6562,35.17443591753883,129.08605543762266
Jpet동물병원,051-853-7579,0.0,부산광역시 연제구 연산동 844-28,부산광역시 연제구 연수로 98 (연산동),47607.0,389553.2447,188196.9353,35.175111325780186,129.08151197991225
더프라임동물의료원,0516252345,0.0,부산광역시 수영구 남천동 69-20,"부산광역시 수영구 수영로 405-1, 2-4층 (남천동)",48316.0,392056.8066,184646.2066,35.14265344601112,129.10815179699676
이상동물병원,051-759-0225,0.0,부산광역시 수영구 수영동,"부산광역시 수영구 수영로 757, 2층 (수영동)",48222.0,393259.403,187424.4945,35.1674484349752,129.12198876838394
소망애견종합병원,051-628-8211,70.0,부산광역시 수영구 남천동 47-1번지 화목아파트 6동 2호,"부산광역시 수영구 수영로 485, 6동 2호 (남천동, 화목아파트)",48265.0,392232.2151,185358.9658,35.1490401187014,129.11024097268663
연제종합동물병원,753-8875,0.0,부산광역시 수영구 망미동 963-21번지,부산광역시 수영구 연수로 241 (망미동),48207.0,390998.5338,188044.1321,35.173461548270375,129.09733200281056
삼성동물병원,051-754-3270,0.0,부산광역시 수영구 망미동 837-4번지 19통5반,부산광역시 수영구 연수로 235 (망미동),48207.0,390929.9312,188050.5082,35.173532004683686,129.09658089817555
ABC동물병원,051-761-2502,82.6,부산광역시 수영구 광안동 117-10번지,부산광역시 수영구 수영로 618-1 (광안동),48291.0,392549.0995,186685.2639,35.16092607847602,129.114025072488
온유동물병원,031-211-1313,27.8,경기도 수원시 영통구 이의동 1335,"경기도 수원시 영통구 센트럴타운로 15, 142호 (이의동, 아이플렉스)",16508.0,205021.862,420685.357,37.2881266382805,127.0574225418027
남문동물병원,031-248-0075,56.3,경기도 수원시 팔달구 중동 111-1,"경기도 수원시 팔달구 정조로 727, 1층 (중동)",16263.0,201369.3011,419011.6732,37.2730584939056,127.01622936376087
펫콤동물병원,031-252-2501,36.0,경기도 수원시 팔달구 우만동 480-40,경기도 수원시 팔달구 월드컵로 363 (우만동),16232.0,202662.7747,420853.2858,37.28964930539285,127.03081950250993
에덴동물병원,031-224-2470,26.3,경기도 수원시 팔달구 매교동 141-5,경기도 수원시 팔달구 정조로 685 (매교동),16467.0,201461.0526,418629.3066,37.2696131082917,127.0172631292638
연두 동물병원,031-294-8277,36.4,경기도 수원시 권선구 금곡동 1078 수원모아미래도센트럴타운1단지 상가동 B127호,"경기도 수원시 권선구 서수원로577번길 341, 상가동 1층 B127호 (금곡동, 수원모아미래도센트럴타운1단지)",16380.0,194444.5492,419297.2635,37.27561572013769,126.93815176367666
고병기동물병원,031-236-7582,53.6,경기도 수원시 권선구 권선동 1192-2 세일프라자 101호,"경기도 수원시 권선구 덕영대로1201번길 16, 세일프라자 101호 (권선동)",16584.0,201946.762,416431.2252,37.24980675705919,127.02273361683973
한빛 동물병원,031-252-2119,41.61,경기도 수원시 장안구 천천동 527-3 105호,경기도 수원시 장안구 만석로19번길 29 (천천동),16329.0,198430.3074,421626.5005,37.2966184009398,126.98308694201388
새봄동물병원,031-205-9975,23.45,경기도 수원시 영통구 영통동 960-3 NEW WORLD PLAZA,"경기도 수원시 영통구 봉영로 1569, NEW WORLD PLAZA 1층 121호 (영통동)",16703.0,206229.4459,416684.3892,37.252069365819224,127.07100742118539
본 동물의료센터,031-248-8275,483.29,경기도 수원시 장안구 조원동 675-2 본 동물의료센터,"경기도 수원시 장안구 송정로 114, 본 동물의료센터 1,2(일부)층 (조원동)",16310.0,200796.3814,421488.6783,37.29537772670633,127.0097722263311
청려원동물병원,031-242-2078,25.96,경기도 수원시 팔달구 중동 2-2,"경기도 수원시 팔달구 정조로 751-7, 1(일부),2(일부층 (중동)",16263.0,201349.5555,419240.4916,37.27512025164461,127.01600713065785
베스트동물병원,031-268-7582,64.0,경기도 수원시 장안구 천천동 524-3 로얄프라자 101호,"경기도 수원시 장안구 덕영대로535번길 38, 로얄프라자 101호 (천천동)",16329.0,198369.1329,421688.9861,37.29718130548183,126.98239685195104
연희동물병원,031-296-7875,54.7,경기도 수원시 권선구 탑동 759-7 삼호빌딩 101호,"경기도 수원시 권선구 금호로 236, 삼호빌딩 101호 (탑동)",16604.0,197796.9428,419269.3741,37.27537862160475,126.97595081591378
참사랑동물병원,031-273-8875,49.4,경기도 수원시 영통구 망포동 559-5 델파빌딩 1층,경기도 수원시 영통구 영통로 118 (망포동),16692.0,204995.0326,415167.7106,37.23841087216227,127.05708344367278
수원펫 동물병원,031-234-8275,13.16,경기도 수원시 권선구 권선동 1058-4,경기도 수원시 권선구 세권로166번길 26 (권선동),16581.0,201855.9661,417006.139,37.25498712055697,127.02171160547655
신영통동물병원,031-204-9006,1695.0,경기도 수원시 영통구 망포동 570-5,경기도 수원시 영통구 영통로 103 (망포동),16687.0,205097.5554,415047.7256,37.23732921320272,127.05823803182251
레오동물병원,031-253-4313,121.0,경기도 수원시 장안구 정자동 872-2 롯데프라자 206호,"경기도 수원시 장안구 정자천로 187 (정자동, 롯데프라자)",16334.0,199375.3262,421688.4851,37.2971780797419,126.99374514093037
하이펫동물병원,031-205-0075,56.82,경기도 수원시 영통구 영통동 980-3 디지털엠파이어빌딩 E동 134호,"경기도 수원시 영통구 덕영대로1556번길 16, 디지털엠파이어빌딩 E동 134호 (영통동)",16690.0,205249.4958,415913.2738,37.24512729911936,127.05995634711928
가야동물병원,031-234-8318,99.0,경기도 수원시 팔달구 매산로3가 63-3,경기도 수원시 팔달구 효원로 49 (매산로3가),16458.0,200760.3364,418585.0263,37.26921491532288,127.009362985705
두리동물클리닉,031-221-2410,138.1,경기도 수원시 팔달구 매산로3가 73-4,경기도 수원시 팔달구 효원로 53 (매산로3가),16458.0,200753.7264,418540.9971,37.268818202083416,127.00928842199505
노아동물병원,031-246-1254,33.6,경기도 수원시 장안구 영화동 394-4,경기도 수원시 장안구 장안로 67 (영화동),16274.0,200216.0119,420935.386,37.29039266989412,127.00322660784445
장안동물병원,031-245-8961,19.25,"경기도 수원시 장안구 조원동 898-2 메가플러스3차 111,112호",경기도 수원시 장안구 송원로 83 (조원동),16295.0,200773.8415,422274.7343,37.30246034168346,127.00951876844748
원 동물병원,031-205-7900,33.4,경기도 수원시 영통구 영통동 976-7 현대프라자 111호,"경기도 수원시 영통구 덕영대로 1535, 현대프라자 111호 (영통동)",16698.0,205137.1392,416040.8823,37.246277717621275,127.05869088152696
위즈펫동물병원,031-223-7589,300.82,경기도 수원시 팔달구 인계동 1045 홈플러스동수원점,"경기도 수원시 팔달구 효원로 257, 홈플러스동수원점 4층 (인계동)",16490.0,202602.63,417869.7239,37.26276659349924,127.03013105255405
고려동물병원,031-256-3369,66.6,경기도 수원시 장안구 정자동 1-8,경기도 수원시 장안구 정조로 987 (정자동),16311.0,200751.843,421448.2783,37.29501374450133,127.00926987735066
광교 우리들동물병원,031-256-0075,103.7,경기도 수원시 영통구 이의동 1352,"경기도 수원시 영통구 에듀타운로 101, 102동 2층 210,211,212호 (이의동, 에듀하임1309오피스텔)",16509.0,203903.941,420852.6758,37.289639515819616,127.0448165180682
티움동물병원,031-292-7504,57.82,경기도 수원시 권선구 금곡동 1135-2,"경기도 수원시 권선구 서수원로523번길 30-23, 1층 (금곡동)",16393.0,196128.6987,418823.5054,37.27135564135732,126.95714341717773
수원 오즈동물병원,031-232-2727,57.78,경기도 수원시 권선구 권선동 1364 수원아이파크시티8단지,"경기도 수원시 권선구 동수원로177번길 40, 1층 153호154호 (권선동, 수원아이파크시티8단지)",16663.0,202599.7944,416089.1258,37.246722765761824,127.03009302395029
라온동물병원,031-215-8588,129.5,경기도 수원시 영통구 매탄동 1203-6,경기도 수원시 영통구 동탄원천로1109번길 100 (매탄동),16528.0,204672.8199,418768.7869,37.27085951709324,127.0534744928694
영통동물병원,031-204-0075,34.0,경기도 수원시 영통구 영통동 1000-9,"경기도 수원시 영통구 청명남로4번길 6, 1층 (영통동)",16705.0,206463.9338,416475.4959,37.250185580674355,127.07364870452828
정동물병원,031-239-7585,64.8,경기도 수원시 팔달구 인계동 1135-7,경기도 수원시 팔달구 권광로 120 (인계동),16491.0,202666.0867,417385.0216,37.25839907904541,127.03084472539554
북문다솜동물병원,031-251-0082,30.2,경기도 수원시 장안구 영화동 326-1,경기도 수원시 장안구 정조로921번길 3 (영화동),16270.0,201096.7847,420872.3477,37.28982411444496,127.01315936911094
순풍동물병원,031-239-3303,42.6,경기도 수원시 권선구 세류동 537-19,"경기도 수원시 권선구 정조로514번길 1, 1층 (세류동)",16588.0,200952.5813,417035.7672,37.25525538097741,127.01152855636394
동수원동물종합병원(권선점),031-237-1212,85.0,경기도 수원시 권선구 권선동 1296-2 114호,"경기도 수원시 권선구 동수원로242번길 6, 114호,206호 (권선동)",16553.0,203024.1335,416561.3163,37.25097612667674,127.0348775888724
김성록동물병원,031-297-2975,58.7,경기도 수원시 장안구 율전동 288-6,경기도 수원시 장안구 서부로 2132 (율전동),16417.0,197462.4204,421848.6429,37.298617767609876,126.97216999364056
나은동물병원,031-241-8575,85.0,경기도 수원시 장안구 연무동 258-7,경기도 수원시 장안구 월드컵로 425-2 (연무동),16221.0,202198.016,421270.4689,37.293409434935846,127.02557947072391
이든동물병원,031-242-7501,29.3,경기도 수원시 팔달구 화서동 743 화서위브하늘채 101호,"경기도 수원시 팔달구 수성로244번길 25, 101호 (화서동, 화서위브하늘채)",16433.0,199979.6464,420715.2447,37.28840913697241,127.00056103860399
쿨펫동물병원,031-237-1175,74.3,경기도 수원시 권선구 권선동 1296-5 롯데마트1층,경기도 수원시 권선구 동수원로 232 (권선동),16553.0,203008.6315,416482.0218,37.25026170307593,127.0347025439546
이지훈동물병원,031-295-5975,67.25,경기도 수원시 권선구 구운동 507-5,경기도 수원시 권선구 금호로 261 (구운동),16410.0,198029.4646,419360.2236,37.276197742629094,126.97857229359101
율전동물병원,031-291-2830,41.8,경기도 수원시 장안구 율전동 399-10 1층,"경기도 수원시 장안구 율전로 98, 1층 (율전동)",16362.0,197175.6588,421788.3695,37.29807384056006,126.96893594390235
타임즈 동물의료센터,031-232-3500,682.43,경기도 수원시 팔달구 인계동 950-6,"경기도 수원시 팔달구 경수대로 486, 1,2,3층 (인계동)",16487.0,202420.1108,418593.7817,37.26929108429409,127.02807574989916
웰빙동물병원,031-212-5567,82.44,경기도 수원시 영통구 이의동 1201 202호,"경기도 수원시 영통구 웰빙타운로 47, 2층 202호 (이의동)",16224.0,204026.7911,422569.2433,37.305105782398286,127.04621108777809
수원종합동물병원,031-214-5527,157.59,경기도 수원시 영통구 원천동 79-9,"경기도 수원시 영통구 중부대로 263, 2층 (원천동)",16503.0,203902.6986,419199.2484,37.27474161161675,127.04479397488403
쿨펫동물병원 광교이마트점,031-211-7782,49.7,경기도 수원시 영통구 이의동 1240,"경기도 수원시 영통구 광교로 191, 3층 (이의동)",16226.0,204159.79,421622.5758,37.29657545697764,127.04770604753801
24시 숨 동물병원,031-548-2475,620.75,경기도 수원시 권선구 권선동 1022-7,"경기도 수원시 권선구 권선로 715, 1,2(일부)층 (권선동)",16571.0,202556.9374,417421.9359,37.258731988523294,127.0296144468585
닥터에이스 동물병원,031-203-7501,63.3,경기도 수원시 영통구 망포동 417-2 101호,"경기도 수원시 영통구 영통로154번길 60, 101호 (망포동)",16691.0,205172.4155,415483.0328,37.241251090885406,127.05908465152528
광교산동물병원,031-241-2668,74.1,경기도 수원시 장안구 영화동 127-39,경기도 수원시 장안구 팔달로 298 (영화동),16268.0,201429.6141,420974.3434,37.290742698346406,127.01691298660447
소담동물병원,031-269-1121,39.7,경기도 수원시 장안구 천천동 548-7,경기도 수원시 장안구 하률로 9 (천천동),16322.0,197651.7748,422354.2149,37.30317362921712,126.97430401518658
튼튼동물병원,031-267-8100,124.0,경기도 수원시 권선구 곡반정동 565-9,"경기도 수원시 권선구 동수원로82번길 7-3, 1층 (곡반정동)",16671.0,202397.0912,415141.7409,37.238186995217525,127.02780540797505
스타동물병원,031-294-0082,110.17,경기도 수원시 권선구 금곡동 1083,경기도 수원시 권선구 금곡로102번길 30(금곡동),16385.0,194708.5662,418983.7749,37.272792640317775,126.94113086739638
매탄동물병원,031-211-0075,45.5,경기도 수원시 영통구 매탄동 1270-1 주공플라자 101호102호,"경기도 수원시 영통구 효원로 374, 주공플라자 101호102호 (매탄동)",16546.0,203681.8395,417432.5688,37.25882410577865,127.04229518356671
퀸즈동물병원,031-292-1682,103.0,경기도 수원시 권선구 금곡동 1091-5,"경기도 수원시 권선구 금곡로118번길 50, 1층 (금곡동)",16388.0,194878.735,418895.1821,37.2719953526614,126.94305010253362
봄나래동물병원,031-217-9559,90.67,경기도 수원시 영통구 이의동 1316-2,경기도 수원시 영통구 센트럴파크로127번길 166(이의동),16506.0,204899.3747,421404.4683,37.294606694118684,127.05604591890102
아름드리동물병원,031-213-7514,94.0,경기도 수원시 영통구 하동 968-4,"경기도 수원시 영통구 법조로149번길 104, 1층 (하동)",16512.0,206014.1841,421307.4388,37.2937259689489,127.06861801517465
서울경기양돈농협동물병원,031-295-7611,101.6,경기도 수원시 팔달구 화서동 736,경기도 수원시 팔달구 화산로 62 (화서동),16423.0,198571.6828,420902.7886,37.29009777376815,126.98468287601415
닥터김 동물병원,031-203-8277,41.59,경기도 수원시 영통구 영통동 958-1 124호,"경기도 수원시 영통구 봉영로 1623, 124호 (영통동, 드림피아빌딩)",16703.0,206556.3518,417113.7666,37.25593599001385,127.07469594920593
조은동물병원,031-242-7585,65.2,경기도 수원시 팔달구 화서동 135-1,"경기도 수원시 팔달구 화양로 21-2, 1층 (화서동)",16443.0,199712.324,419798.2539,37.28014669495308,126.99754684266489
한마음 동물의료센터,031-244-0117,82.7,경기도 수원시 장안구 영화동 390-19,"경기도 수원시 장안구 수성로 300, 1층 (영화동, 동광빌딩)",16273.0,200383.6733,421006.4104,37.2910325791531,127.00511742721487
전병준동물병원,031-212-7582,8.0,경기도 수원시 팔달구 인계동 1036 수원미디어시티,"경기도 수원시 팔달구 인계로 126, 수원미디어시티 109호110호호 (인계동)",16489.0,202706.3559,418367.4453,37.26725094772208,127.03130215262135
애니존동물병원,031-267-0975,52.2,경기도 수원시 팔달구 인계동 1019-5,경기도 수원시 팔달구 인계로108번길 4 (인계동),16489.0,202517.5715,418412.2201,37.26765490050039,127.02917395023631
자연앤동물병원,031-215-7582,34.2,경기도 수원시 영통구 이의동 1369-2 국제프라자 108호,"경기도 수원시 영통구 에듀타운로 17, 국제프라자 108호 (이의동)",16509.0,204571.5442,420288.9734,37.28455738798917,127.0523418687319
카페거리 동물병원 동행,031-211-7550,127.88,경기도 수원시 영통구 이의동 1306-15,"경기도 수원시 영통구 센트럴파크로127번길 32, 지하,1층 (이의동)",16506.0,204767.3518,421448.1406,37.29500087125018,127.05455723446875
한성동물병원,031-232-5831,33.88,경기도 수원시 팔달구 지동 365-20 포레스트 101호,"경기도 수원시 팔달구 세지로 279-1, 101호 (지동, 포레스트)",16245.0,201991.5941,419337.5849,37.27599398664862,127.0232464609201
귀족동물병원,031-254-7518,49.0,경기도 수원시 장안구 영화동 448-1,경기도 수원시 장안구 수성로350번길 4 (영화동),16271.0,200838.5395,421200.1409,37.292777882941266,127.01024739180983
뷰티펫동물병원,031-278-3593,104.98,경기도 수원시 권선구 호매실동 1400,"경기도 수원시 권선구 호매실로104번길 90, 제이디타워1 206호 (호매실동)",16630.0,196620.6117,417517.6144,37.25959106055839,126.96269556938266
아이러브 동물병원,031-241-7551,118.18,경기도 수원시 장안구 송죽동 506-3,"경기도 수원시 장안구 송원로 69, 4층 (송죽동)",16305.0,200703.2632,422135.7362,37.30120797942093,127.00872258023638
하하 동물병원,031-292-1275,31.87,경기도 수원시 권선구 구운동 921-11,"경기도 수원시 권선구 구운로85번길 12, 105층 (구운동)",16405.0,197489.4946,419955.2153,37.28155747567709,126.9724819083778
맘동물병원,031-548-1175,60.8,경기도 수원시 영통구 이의동 1332 Summit place 광교 cb12호,"경기도 수원시 영통구 센트럴타운로 85, cb12호 (이의동, Summit place 광교)",16507.0,204409.226,420967.6178,37.2906729566305,127.05051544460893
이리온동물병원광교롯데마트점,031-213-0053,47.9,경기도 수원시 영통구 이의동 1332 Summit place 광교,"경기도 수원시 영통구 센트럴타운로 85 (이의동, Summit place 광교)",16507.0,204409.226,420967.6178,37.2906729566305,127.05051544460893
공감＋동물의료센터,031-214-0025,182.4,경기도 수원시 영통구 원천동 78-3,"경기도 수원시 영통구 중부대로 293-3, 2층 (원천동)",16503.0,204155.9256,419123.029,37.27405377126859,127.04764871208376
메리 동물병원,031-296-7582,51.8,경기도 수원시 권선구 호매실동 1362-1 103-2호,"경기도 수원시 권선구 칠보로 138, 103-2호 (호매실동)",16401.0,195837.2106,418184.3976,37.26559578576153,126.95386063939173
조원 동물병원,031-244-7975,101.92,경기도 수원시 장안구 조원동 734-18,"경기도 수원시 장안구 조원로 78, 1층 (조원동)",16282.0,201423.5724,422034.8584,37.300298266923164,127.01684679124034
행복사랑동물병원,031-255-7975,148.0,경기도 수원시 장안구 조원동 752,"경기도 수원시 장안구 송원로86번길 4, 1,2층 (조원동)",16284.0,200828.9929,422235.1495,37.30210362738146,127.01014079280334
수원 스카이 동물메디컬센터,031-895-5775,790.0,경기도 수원시 팔달구 인계동 951-10,"경기도 수원시 팔달구 인계로 91, 2,3층 (인계동)",16487.0,202393.1681,418513.7064,37.268569646263366,127.02777173988868
수원24시 바른동물의료센터,031-291-2475,393.11,경기도 수원시 권선구 금곡동 1114,"경기도 수원시 권선구 금곡로 213, 203,204,309호 (금곡동)",16391.0,195818.5252,419211.743,37.274852429232844,126.95364412654162
안녕동물병원,031-8007-3103,77.94,경기도 수원시 영통구 원천동 593 광교아이파크,"경기도 수원시 영통구 광교호수공원로 80, 154호,155호,156(일부)호 (원천동, 광교아이파크)",16514.0,205357.8071,419119.0197,37.274011589403976,127.06119987595277
다나 동물병원,031-211-7525,96.84,경기도 수원시 영통구 매탄동 923-6,"경기도 수원시 영통구 동수원로 400-1, 1층 (매탄동)",16543.0,203520.2013,418087.1587,37.26472280442345,127.04047612064382
에스 클래스 동물병원,031-217-7801,66.0,경기도 수원시 영통구 원천동 589 중흥 S-클래스,"경기도 수원시 영통구 광교호수공원로 277, B1층 9,10호 (원천동, 중흥 S-클래스)",16517.0,205026.0796,420062.8782,37.282517886913496,127.0574659512158
sun동물병원,031-234-5550,37.68,경기도 수원시 권선구 곡반정동 558-2,경기도 수원시 권선구 곡선로 37 (곡반정동),16670.0,202489.2237,415275.8755,37.2393953648596,127.02884414470185
새싹 동물병원,031-202-7501,92.12,경기도 수원시 영통구 신동 937-1,"경기도 수원시 영통구 권선로908번길 31, 103,104호 (신동)",16683.0,203925.9432,416153.6983,37.24730003690702,127.0450402647775
수원시동물보호센터 동물병원,031-228-3561,595.71,경기도 수원시 영통구 하동 40-10 수원시 동물보호센터,"경기도 수원시 영통구 광교호수로 234, 수원시 동물보호센터 (하동)",16511.0,206906.4684,420340.3514,37.2850060854222,127.07867222152622
유동물병원,070-4647-2999,34.37,경기도 수원시 장안구 영화동 422-43,"경기도 수원시 장안구 장안로 29, 103호 (영화동)",16274.0,200412.9971,420627.3774,37.287617363355615,127.0054479489442
쿨펫 동물병원,031-206-7503,74.19,경기도 수원시 영통구 망포동 557-1 효성빌딩,"경기도 수원시 영통구 영통로 120, 효성빌딩 1층 (망포동)",16692.0,204977.016,415193.8663,37.238646640194226,127.05688057488342
라임동물병원,02-6227-7582,85.96,서울특별시 송파구 방이동 135-1 세림빌딩 1층,"서울특별시 송파구 가락로 258, 세림빌딩 1층 (방이동)",5634.0,210444.4877,445418.5016,37.51093064348356,127.11892098951772
쪼꼬동물메디컬센터,0325652943,531.5,인천광역시 서구 가정동 606-2번지 2층,"인천광역시 서구 청중로478번안길 4, 2층 (가정동)",22858.0,170321.0232,447511.2305,37.529365033225275,126.66502154442233
청주시 반려동물보호센터,231-0047,34.45,충청북도 청주시 흥덕구 강내면 태성리 22-5,충청북도 청주시 흥덕구 강내면 서부로 411-55,28174.0,232645.5077,343314.6376,36.59040804678279,127.3656015618968
현대종합동물병원,02-2212-7596,0.0,서울특별시 동대문구 장안동 330-2,"서울특별시 동대문구 답십리로 293, 1층 (장안동)",2523.0,206384.1763,452248.6846,37.57250673833485,127.07305558017414
로잔동물의료센터,02-872-7588,0.0,서울특별시 관악구 봉천동 40-29 수안빌딩,"서울특별시 관악구 관악로29길 3, 1층 (봉천동)",8727.0,196078.029,442691.1381,37.48640687201017,126.95644364462429
서울종합동물병원,02-888-8807,0.0,서울특별시 관악구 신림동 408-143번지 1층,"서울특별시 관악구 신림로 233, 1층 (신림동)",8845.0,194203.9151,441673.9224,37.47723176552388,126.9352614781174
시지동물병원,0537915945,0.0,대구광역시 수성구 시지동 462-121,대구광역시 수성구 달구벌대로 3014 (시지동),42251.0,352351.8979,261497.3385,35.84180841592167,128.68707975930704
토마스동물병원,031-771-7599,98.6,경기도 양평군 양평읍 공흥리 585,"경기도 양평군 양평읍 중앙로 93, 101,102호",12551.0,244102.628,443704.25,37.49449409391657,127.4995012742236
로뎀나무 동물의료센터,031-847-7720,396.0,경기도 양주시 만송동 343-2,"경기도 양주시 고읍로 166, 1,2층 전부호 (만송동)",11494.0,207639.6058,476536.2523,37.791320917781476,127.08751903466339
제일동물병원,323-2423,24.0,전북특별자치도 무주군 안성면 장기리 1334-1,전북특별자치도 무주군 안성면 안성로 298-6,55540.0,259109.0187,263253.3839,35.867678958705866,127.65527737378642
바나나동물병원,231-0119,0.0,인천광역시 남동구 구월동 1264,"인천광역시 남동구 호구포로 818, 116,117호 (구월동)",21534.0,175127.3114,439299.8294,37.45552362033241,126.7196739066186
더바름동물병원,02-6953-7515,0.0,경기도 고양시 덕양구 향동동 563번지,"경기도 고양시 덕양구 향기로 56, 스카이타워 1층 101호 (향동동)",10546.0,190408.5962,454741.9862,37.59494206734052,126.8921820377641
우리동물병원,063-642-5550,141.35,전북특별자치도 임실군 오수면 오수리 348-21,전북특별자치도 임실군 오수면 오수4길 5,55952.0,229719.937,226573.66,35.53843025282172,127.32852618079266
수호동물병원,053-982-0275,111.0,대구광역시 동구 봉무동 1539-3번지 이시아시티빌딩 205호,"대구광역시 동구 팔공로51길 3, 이시아시티빌딩 205호 (봉무동)",41026.0,347996.7264,270411.6872,35.92278204096194,128.64054747366018
정직한 동물병원,070-4647-4849,0.0,제주특별자치도 서귀포시 대정읍 보성리 2477,"제주특별자치도 서귀포시 대정읍 글로벌에듀로 370, 이노에듀파크 117,118호",63644.0,132689.4904,-23692.02957,33.28071170526721,126.27827674892883
봄날동물병원,02-6949-0413,106.2,서울특별시 양천구 목동 753-12,"서울특별시 양천구 목동중앙로 89, 1층 (목동)",7961.0,188605.7627,448342.9432,37.53726689527939,126.871868157743
24시 위드힐동물메디컬센터,031-523-3256,314.0,경기도 남양주시 별내동 931 e드림타워,"경기도 남양주시 두물로11번길 42, e드림타워 2층 (별내동)",12105.0,210965.6972,461767.4776,37.65822624476028,127.12505929691382
린동물병원,051-514-2470,166.98,부산광역시 동래구 온천동 777-49,"부산광역시 동래구 중앙대로1381번길 43, 2층 (온천동)",47728.0,388925.1298,192172.8389,35.211042761903386,129.07553159231705
베이직 동물병원,051-342-5999,0.0,부산광역시 북구 만덕동 918-13번지,"부산광역시 북구 만덕3로 55-1, 2층 (만덕동)",46563.0,384754.3119,192101.4961,35.21117591136559,129.0297386694665
세온동물병원,031-362-5475,77.97,경기도 안산시 단원구 초지동 726-5 주공프라자,"경기도 안산시 단원구 초지로 114, 주공프라자 111,112호 (초지동)",15445.0,183555.4379,422997.9806,37.30883077037328,126.81529288407272
아리스타동물의료센터,041-909-4141,2206.56,충청남도 천안시 서북구 불당동 1483 불당아리스타팰리스 1동,"충청남도 천안시 서북구 불당23로 73-30, 불당아리스타팰리스 1동 124~127호 (불당동)",31156.0,209778.4546,368742.6016,36.820050880523056,127.11039222054433
마린숲 동물병원,051-742-7585,0.0,부산광역시 해운대구 우동 1435-3 한일오르듀,"부산광역시 해운대구 마린시티3로 37, 한일오르듀 207호 (우동)",48118.0,395534.3219,186145.1302,35.15548539333696,129.14663968996
더원동물메디컬센터,0426238461,409.0,대전광역시 동구 용전동 43-1,대전광역시 동구 계족로 510 (용전동),34542.0,238808.7508,317465.3316,36.357241890835695,127.43317880042498
커비동물병원,02-545-8952,0.0,서울특별시 강남구 논현동 159-23 보령빌딩 104호,"서울특별시 강남구 강남대로122길 47, 보령빌딩 1층 104호 (논현동)",6114.0,202289.6305,445195.0112,37.508972662235756,127.02668468237587
이서동물병원,053-719-0205,0.0,대구광역시 달서구 성당동 263-4,대구광역시 달서구 구마로 243 (성당동),42680.0,340368.6047,260813.7846,35.83743710984206,128.55437058517052
미드미동물병원,031-998-6473,153.11,경기도 김포시 마산동 647-3,"경기도 김포시 김포한강8로194번길 8-6, 1층 (마산동)",10068.0,168546.0106,459707.2079,37.639187991590106,126.6444161965329
링크동물의료센터,02-393-7577,0.0,서울특별시 서대문구 북아현동 251-40,"서울특별시 서대문구 신촌로 209, 1,2층 (북아현동)",3767.0,195447.8142,450549.7378,37.557209530875056,126.94926857335645
구로다나은동물병원,02-2672-7582,0.0,서울특별시 구로구 신도림동 400-1 110호,"서울특별시 구로구 신도림로 7, 1층 110호 (신도림동)",8206.0,189067.276,444891.6056,37.506176193111344,126.87714156088455
신월동물병원,02-2607-7582,61.52,서울특별시 양천구 신월동 1002-3,"서울특별시 양천구 신월로 124, 1층 (신월동)",8047.0,185586.4456,446018.0632,37.516277493981896,126.8377520261571
진현우동물병원,0325727475,0.0,인천광역시 서구 석남동 454-3번지,인천광역시 서구 가정로 295 (석남동),22785.0,170967.1622,445512.8214,37.5113803542299,126.67241047361067
국립생태원 멸종위기종복원센터 동물병원,054-680-7451,325.0,경상북도 영양군 영양읍 대천리 360 국립멸종위기종복원센터,"경상북도 영양군 영양읍 고월길 23, 국립멸종위기종복원센터",36531.0,392603.0437,351799.2875,36.647959576570514,129.1545405094265
톰과 제니 동물메디컬센터,0313654542,401.7,경기도 안산시 상록구 사동 1639-24,"경기도 안산시 상록구 해양4로 26, 자이센터프라자 2층 207,208,209,210호 (사동)",15596.0,184771.8998,420250.476,37.28409583760469,126.82907123933788
퍼스트동물병원,029117582,52.8,서울특별시 성북구 장위동 173-114 래미안장위퍼스트하이,"서울특별시 성북구 한천로 713, 515동 상가 206,207호 (장위동, 래미안장위퍼스트하이)",2760.0,204479.7692,457527.0659,37.62007518346809,127.05152985259157
언제나동물병원,041-543-7009,73.5,충청남도 아산시 배방읍 장재리 1517번지 101호,"충청남도 아산시 배방읍 용연로 87, 101호",31467.0,208059.9318,365305.1287,36.7890917450233,127.09109488052763
오션동물메디컬센터,051-711-5999,0.0,부산광역시 해운대구 반여동 1441-85 다솜빌딩,"부산광역시 해운대구 선수촌로 78, 다솜빌딩 2층 (반여동)",48037.0,392947.5294,191104.6491,35.20065668939473,129.11942794962818
도담동물병원,02-6953-7512,0.0,서울특별시 강동구 고덕동 172-9,"서울특별시 강동구 상일로 153, 1층 (고덕동)",5222.0,214989.297,450945.4079,37.560665209355655,127.17043723950614
메디힐동물병원,02-6275-0075,128.0,경기도 광명시 일직동 511-5 GS steel Tower,"경기도 광명시 신기로 21, GS steel Tower 206호 (일직동)",14344.0,189636.8295,435346.5131,37.42018127943449,126.88371807338841
바른마음동물병원,031-778-7512,163.8,경기도 시흥시 능곡동 719 능곡타운,"경기도 시흥시 장현능곡로 178, 능곡타운 2층 204호 (능곡동)",14995.0,183094.3155,429741.2252,37.36958034409226,126.80993712147918
가나다 동물병원,0517157979,165.38,부산광역시 사상구 주례동 191-17번지,부산광역시 사상구 가야대로 325 (주례동),47004.0,382913.5352,185404.72,35.15118845257258,129.00805110479868
오늘동물병원,024697975,83.1,서울특별시 성동구 성수동1가 656-968번지 영화빌딩 2층,"서울특별시 성동구 왕십리로 104, 영화빌딩 2층 (성수동1가)",4778.0,203895.4488,449401.2899,37.546865724644285,127.044868768293
명진동물병원,053-943-8275,228.74,대구광역시 동구 신암동 576-20번지 201호,"대구광역시 동구 아양로 81, 201호 (신암동)",41198.0,346475.5807,266000.3908,35.88327038749949,128.62288891576503
선동물병원,02-733-6030,326.5,서울특별시 종로구 신교동 70-10번지,"서울특별시 종로구 자하문로 95, 신교빌딩 1층 (신교동)",3032.0,197278.8919,453572.3556,37.58445029776568,126.96998032810143
서울동물복지지원센터 동물병원(구로),02-2636-7645,0.0,서울특별시 구로구 구로동 631-23 서울반려동물교육센터,"서울특별시 구로구 경인로 472, 서울반려동물교육센터 (구로동)",8278.0,188524.1516,443977.1715,37.497930550974864,126.87101328703262
24시 더블유 동물의료센터,0325658270,0.0,인천광역시 서구 청라동 157-21 청라한신더휴커낼웨이,"인천광역시 서구 청라커낼로260번길 27, 청라한신더휴커낼웨이 2층 236~239호 (청라동)",22762.0,168769.9608,447843.9148,37.53231114418968,126.64746006688067
나라동물병원,043-648-0750,0.0,충청북도 제천시 청전동 13-8,"충청북도 제천시 의림대로 285, 2층 (청전동)",27154.0,307727.7838,406321.8309,37.152521962949635,128.21345023779722
아이케어 동물병원,042-710-7975,99.0,대전광역시 유성구 문지동 637-2,"대전광역시 유성구 엑스포로446번길 42, 101호 (문지동)",34050.0,236469.2713,321763.006,36.39606161510345,127.40731570967417
가온동물의료센터,032-566-7589,0.0,인천광역시 서구 가정동 619-7,"인천광역시 서구 염곡로464번길 15, 쓰리엠타워 2층 201,202호 (가정동)",22883.0,170839.8972,447179.68,37.526394410068676,126.67090480639422
이솝동물병원,062-973-1255,0.0,광주광역시 광산구 쌍암동 655-2,"광주광역시 광산구 첨단중앙로 170, 1층 (쌍암동)",62274.0,185553.7322,191253.5979,35.22042173092666,126.8421335923009
24시퍼스트동물의료센터,032-435-6333,310.47,인천광역시 미추홀구 주안동 929-16 보미 리즌빌,"인천광역시 미추홀구 경원대로 890, 101,111호 (주안동, 보미 리즌빌)",22143.0,172527.5,440045.0651,37.46216441034839,126.69026297998872
마루동물병원,0438337588,49.0,충청북도 괴산군 청천면 청천리 65-3,충청북도 괴산군 청천면 청천3길 7,28063.0,265845.8348,351168.9372,36.659469355118866,127.737257771731
오즈동물병원,062-654-1275,162.0,광주광역시 남구 주월동 536-24 오즈동물병원,"광주광역시 남구 회재로 1158, 오즈동물병원 1층 (주월동)",61729.0,189748.5795,181304.1477,35.13079420731873,126.88833306879104
탑 동물병원,055-715-7582,93.34,경상남도 창원시 의창구 사림동 165-14,"경상남도 창원시 의창구 용동로 85, 한마음 빌딩 304호 (사림동)",51139.0,354744.208,194567.6312,35.238466421062775,128.70077916243184
박순석동물메디컬센터,053-657-0959,333.26,대구광역시 남구 대명동 1057,"대구광역시 남구 대명로 72, 더원빌딩 2층 (대명동)",42484.0,341377.5822,261000.4047,35.83897360884165,128.56556700498192
"에스디(SD)동물의료센터,서울",02-2039-0303,0.0,서울특별시 중구 신당동 855 신당 파인힐 하나유보라,"서울특별시 중구 왕십리로 407, 신당 파인힐 하나유보라 B1층 03,04,05호 (신당동, 신당 파인힐 하나유보라)",4580.0,202131.7471,451330.4829,37.56425320359731,127.02491625101878
대구24시라이프동물의료센터,053-567-2475,383.04,대구광역시 달서구 감삼동 69-1,"대구광역시 달서구 달구벌대로 1601, 1층 (감삼동)",42640.0,339177.0268,262436.0269,35.85222195793129,128.54146932201962
아이편한 동물의료센터,0319708875,147.1,경기도 고양시 덕양구 행신동 762,"경기도 고양시 덕양구 충장로 14, 글로리아프라자  2층 201호 (행신동)",10526.0,185316.5624,456868.29,37.61403212367028,126.83448117822297
아이사랑동물병원 건강검진센터,02)946-0011,0.0,서울특별시 강북구 미아동 561-2 현대성우아파트,"서울특별시 강북구 삼양로24길 19, 현대성우아파트 102동 1층 109호 (미아동, 현대성우아파트)",1201.0,201882.0268,457207.4598,37.6172043958941,127.02210435080659
삼산평생동물병원,032-515-3375,175.89,인천광역시 부평구 삼산동 462-4 유림프라자 201호,"인천광역시 부평구 체육관로 20, 유림프라자 201호 (삼산동)",21344.0,176407.2124,445157.8691,37.508337677541185,126.73395127158996
팝애니랩,031-523-2731,21.0,경기도 남양주시 별내동 974-1 동광 비즈타워 별내 415호,"경기도 남양주시 순화궁로 272, 동광 비즈타워 별내 415호 (별내동)",12106.0,211348.256,461027.6501,37.65155598106429,127.12938332890633
수정동물병원,052-936-0075,86.0,울산광역시 남구 야음동 717-2,울산광역시 남구 중앙로28번길 2(야음동),44755.0,410251.3404,227382.9986,35.52390417722686,129.3186175672329
송도 클로버동물병원,032-851-8119,91.74,인천광역시 연수구 송도동 10-7 220호,"인천광역시 연수구 하모니로178번길 22, 220호 (송도동)",22011.0,168123.3749,431284.3849,37.38308973720921,126.64086206516397
디아동물병원,02-572-2772,0.0,서울특별시 강남구 개포동 158-8,"서울특별시 강남구 선릉로4길 13, 2층 (개포동)",6325.0,205433.0886,442288.8465,37.48277522532209,127.06221668898483
경주시 동물사랑보호센터 동물병원,054-760-2885,0.0,경상북도 경주시 천북면 신당리 915-21 경주시 동물보호센터,"경상북도 경주시 천북면 천북로 8-4, 경주시 동물보호센터",38043.0,402054.2771,268149.9565,35.89274758746063,129.23855493230204
청양축협 동물병원,041-942-3118,60.8,충청남도 청양군 정산면 서정리 99-22 축협정산지소,"충청남도 청양군 정산면 서정2길 5, 축협정산지소",33351.0,195388.1218,323497.6119,36.41237137845857,126.94937982900221
풍경동물병원,051-818-1101,0.0,부산광역시 부산진구 초읍동 203-17,부산광역시 부산진구 성지로 110-1(초읍동),47115.0,386858.3424,188687.2409,35.18003212543801,129.05205828110033
다나을동물병원,031-8027-0975,246.3,"경기도 하남시 망월동 1125 미사역 파라곤 스퀘어, 2002,2002-1,2003호","경기도 하남시 미사강변동로 100-1, 미사역 파라곤 스퀘어 2층 2002,2002-1,2003호 (망월동)",12912.0,217057.1749,451355.8798,37.56432769408558,127.19385093453748
허그미동물병원,031-881-2279,145.69,경기도 여주시 교동 213-4,경기도 여주시 향교로 50(교동),12644.0,255663.4733,420769.8964,37.287241064941426,127.62850172074873
노형 꿈 동물병원,064-744-1128,188.0,제주특별자치도 제주시 노형동 2924-2,제주특별자치도 제주시 월광로 32(노형동),63105.0,150192.4108,-1230.959736,33.48416656683798,126.46491150442729
슬기로운동물병원,0316555946,82.0,경기도 안성시 공도읍 양기리 298-8,"경기도 안성시 공도읍 서동대로 4486, 1층 1호",17558.0,217772.3429,389702.0037,37.00879672596027,127.2004776221738
힐스타운 동물병원,02-2237-7582,118.8,서울특별시 중구 신당동 844 남산타운,"서울특별시 중구 다산로 32, 스포츠상가동 106-2호 (신당동, 남산타운)",4595.0,200750.4551,449638.8243,37.5490135910579,127.00928041257745
9월의 소원 동물병원,710-5956,0.0,"인천광역시 남동구 구월동 1199-1 그랜드프라자 204,205호","인천광역시 남동구 구월남로 174, 그랜드프라자 2층 204,205호 (구월동)",21565.0,174188.4302,438998.3194,37.45278125267576,126.7090732239196
이상윤동물병원,027925455,39.37,서울특별시 용산구 이촌동 300-23 한강맨션,"서울특별시 용산구 이촌로 248, 31동 105-2호 (이촌동, 한강맨션)",4426.0,197722.571,446344.5912,37.519330049328936,126.97502655741583
정창수외과동물병원,031-911-7577,255.27,경기도 고양시 일산서구 대화동 2239 KINTEX ZONE,"경기도 고양시 일산서구 중앙로 1547, KINTEX ZONE 203,204호 (대화동)",10380.0,177837.4718,463631.4245,37.674815490245194,126.74956707864382
탑동물병원,031-970-7765,0.0,경기도 고양시 덕양구 토당동 870-5,경기도 고양시 덕양구 토당로 4(토당동),10510.0,184411.9135,457246.3362,37.61742328450149,126.82422698182864
24시 포항 이음동물의료센터,054-612-2475,0.0,경상북도 포항시 남구 효자동 587,경상북도 포항시 남구 효성로93번길 4(효자동),37835.0,411285.9957,280970.9404,36.006250908518076,129.34412872443076
금빛동물병원,051-515-3179,0.0,부산광역시 금정구 장전동 615-6,"부산광역시 금정구 식물원로 38, 1층 (장전동)",46297.0,389697.6318,193741.7614,35.22502922669003,129.08437115194485
반려마루 동물병원,031-8030-4462,795.96,경기도 여주시 상거동 380-4,경기도 여주시 명품1로 1-2(상거동),12658.0,254294.9868,415177.5125,37.23693531164874,127.61266299796154
말바우동물병원,062-262-5535,86.6,광주광역시 북구 우산동 232-10 1층,"광주광역시 북구 동문대로 79, 1층 (우산동)",61194.0,192872.0971,185795.7061,35.17130621315762,126.9225644103708
조이앤동물병원,031-353-7522,194.77,경기도 화성시 향남읍 하길리 1465-2 1동 205호,"경기도 화성시 향남읍 발안양감로 187, 1동 205호",18606.0,192012.6582,401627.8763,37.11638887007127,126.91092208835899
괜찮아동물병원,031-662-9990,207.0,경기도 평택시 고덕동 1886-1 그랜드메디컬타워,"경기도 평택시 고덕갈평5길 32, 그랜드메디컬타워 3층 311~314호 (고덕동)",18008.0,204145.4193,394985.0505,37.05655859908453,127.04739856827455
센트럴동물병원,838-7575,72.0,경기도 동두천시 지행동 325-1,경기도 동두천시 행선로 53(지행동),11362.0,205254.9758,487821.3683,37.89301032416296,127.06052699152892
해나동물병원,031-378-7599,85.66,경기도 화성시 목동 496-2 102호,"경기도 화성시 동탄신리천로 406, 리더스퀘어 102, 103호 (목동)",18490.0,210823.9329,408951.1585,37.18234813084269,127.12268356833864
칠곡온동물의료센터,321-7579,0.0,대구광역시 북구 학정동 942-7,대구광역시 북구 학정로 500-1(학정동),41416.0,341146.9128,273245.4169,35.949323092033524,128.5651830559627
안산 센트럴 동물병원,031-439-7582,0.0,경기도 안산시 단원구 고잔동 537-4 롯데프라자 2층,"경기도 안산시 단원구 중앙대로 899, 롯데프라자 2층 (고잔동)",15360.0,185430.4243,423951.6866,37.31745527517511,126.8364241794599
운정튼튼동물병원,0319427524,79.6,경기도 파주시 목동동 1136,"경기도 파주시 심학산로423번길 7-21, 광성빌딩 (목동동)",10900.0,176767.9384,468515.1928,37.71878971162053,126.73728756870744
바른동물병원,043-742-8706,117.88,충청북도 영동군 영동읍 동정리 80-2,"충청북도 영동군 영동읍 동정로 64, 1층",29140.0,270851.4537,297332.131,36.17399829884519,127.78833050566064
베스트프렌드 동물병원,051-753-2966,132.65,부산광역시 수영구 망미동 803-10,부산광역시 수영구 연수로 296(망미동),48235.0,391527.4307,187966.6296,35.172662883866025,129.10311607603654
보현동물병원,031-203-5525,66.0,경기도 수원시 영통구 영통동 946-7 현명빌딩 2층,"경기도 수원시 영통구 봉영로1759번길 8-15, 현명빌딩 2층 (영통동)",16712.0,207134.899,418326.2467,37.26685664415065,127.08122900614708
배다리동물병원,031-618-8867,772.9,경기도 평택시 죽백동 772,경기도 평택시 죽백5로 37(죽백동),17861.0,210598.5772,389150.099,37.003931414912095,127.11986795519184
농림축산검역본부 부설 동물병원,054-912-0473,176.04,경상북도 김천시 율곡동 960 농림축산검역본부,"경상북도 김천시 혁신8로 177, 농림축산검역본부 질병진단동 1층 (율곡동)",39660.0,307989.4049,292526.4368,36.127274719189046,128.20040057894718
보담동물의료센터,051-953-2000,0.0,부산광역시 금정구 장전동 607-37,"부산광역시 금정구 식물원로 11, 2층 (장전동)",46301.0,389912.897,193614.5837,35.2238429820569,129.08670482957135
정직한동물의료센터,031-222-7617,289.52,경기도 수원시 권선구 권선동 941-5,"경기도 수원시 권선구 경수대로 411, 1층 (권선동)",16570.0,202120.9046,417923.6869,37.26325400730463,127.02470056499773
BK심장동물병원,027909808,0.0,서울특별시 성동구 행당동 140 행당동 레몬프라자 1층 113호,"서울특별시 성동구 고산자로6길 40, 행당동 레몬프라자 1층 113호 (행당동)",4745.0,203071.9592,450665.5326,37.558259484817725,127.03555538573649
큰사랑동물병원,031-632-5975,191.42,경기도 이천시 창전동 165-1 이천IS타워빌딩,"경기도 이천시 이섭대천로 1229, 이천IS타워빌딩 203호 (창전동)",17369.0,239534.9723,419881.6251,37.28006131886899,127.44658120196327
윤성진 안과/외과 동물병원,0317580824,0.0,경기도 성남시 수정구 시흥동 42-2,경기도 성남시 수정구 설개로21번길 7 (시흥동),13445.0,209411.7822,435455.4124,37.42117399518387,127.10711424797319
김천 내일동물병원,054-911-1190,155.92,경상북도 김천시 율곡동 675,"경상북도 김천시 혁신4로 81, 101호 (율곡동)",39660.0,307099.134,291871.1773,36.121469297031716,128.1904238968838
동물진료법인 포레스트,070-7733-8505,152.76,서울특별시 도봉구 창동 1-28 씨드큐브 창동,"서울특별시 도봉구 마들로13길 61, 씨드큐브 창동 B103-1호 (창동)",1413.0,204313.9068,461347.8787,37.654500622158984,127.0496733340196
스타필드 수원 화서점 웰니스 동물병원,031-690-1175,0.0,경기도 수원시 장안구 정자동 111-14,"경기도 수원시 장안구 수성로 175, 1층 1252(일부)호 (정자동)",16318.0,199161.3809,420620.3512,37.28755368325603,126.9913334684828
휴 동물병원,031-323-3383,0.0,경기도 용인시 처인구 원삼면 목신리 723,경기도 용인시 처인구 원삼면 보개원삼로 1361-1,17170.0,227164.1817,401863.2566,37.11815226607367,127.30643849947971
경기도동물위생시험소 부설 동물병원,031-8008-6300,300.36,경기도 수원시 권선구 금곡동 746-15 경기도동물위생시험소,"경기도 수원시 권선구 칠보로1번길 63, 경기도동물위생시험소 (금곡동)",16381.0,194146.2888,418404.1902,37.26756698570248,126.9347959141384
이웃집 동물병원,031-295-0975,0.0,경기도 수원시 권선구 오목천동 478-4,"경기도 수원시 권선구 삼천병마로1566번길 13, 1층 6호 (오목천동)",16636.0,196749.7865,415687.0146,37.24309715220561,126.96415987657967
노아동물병원,0539638882,0.0,대구광역시 동구 신서동 621-22,"대구광역시 동구 반야월로 334, 1층 (신서동)",41083.0,355720.7131,264899.997,35.87193227077821,128.72501536064595
강서 더힐 동물병원,02-2065-7585,67.28,서울특별시 강서구 화곡동 1165-1 강서힐스테이트 상가동 219호,"서울특별시 강서구 강서로 242, 상가동 219호 (화곡동, 강서힐스테이트)",7694.0,185509.1655,449450.0697,37.547198317941145,126.83680990909723
위케어동물의료센터,031-994-6346,199.72,경기도 고양시 일산동구 식사동 1498 위시티일산자이2단지아파트 상가동,"경기도 고양시 일산동구 위시티4로 46, 상가동 302,303,303A,304호 (식사동, 위시티일산자이2단지아파트)",10322.0,183717.6669,464491.4439,37.682687522118606,126.81620142651423
백동물의료센터,031-278-7631,296.71,경기도 화성시 봉담읍 동화리 238-91 1층,"경기도 화성시 봉담읍 동화역말길 73-2, 1층",18298.0,197121.5173,412805.7951,37.21713745817608,126.96836078597627
링크늘푸른동물병원,063-281-0075,0.0,전북특별자치도 전주시 완산구 중화산동2가 528-5,전북특별자치도 전주시 완산구 서원로 225 (중화산동2가),54980.0,210706.3171,256973.1171,35.81279924113201,127.11926659046321
데일리 동물의료센터,063-901-6002,0.0,전북특별자치도 전주시 완산구 효자동2가 1-2,전북특별자치도 전주시 완산구 서원로 168 (효자동2가),55050.0,210124.5322,257022.1961,35.81324770339365,127.11282990116123
천안시 동물보호센터 동물병원,041-566-5320,119.56,충청남도 천안시 동남구 목천읍 응원리 273-12,"충청남도 천안시 동남구 목천읍 충절로 577, 천안시 동물보호센터",31224.0,216019.7861,363497.0501,36.77269846838489,127.18023520855081
한별피그크리닉,031-556-9008,0.0,경기도 성남시 분당구 정자동 10-1 아이파크분당2,"경기도 성남시 분당구 정자일로213번길 19, 201동 208호 (정자동, 아이파크분당2)",13556.0,209217.5973,429862.7013,37.37078486347158,127.10485134224604
한마음동물의료원,031-657-7778,441.61,경기도 안성시 공도읍 승두리 60-10,"경기도 안성시 공도읍 공도로 116-16, 101,201,202호",17562.0,215339.6316,388643.6561,36.999302937529265,127.17312312975302
오즈동물병원,0269587515,70.4,"서울특별시 성동구 행당동 377 서울숲 더샵, 4층","서울특별시 성동구 왕십리로 241, 4층 (행당동, 서울숲 더샵)",4765.0,203481.6282,450468.7733,37.55648527615513,127.04019096673404
24시 파티마동물의료센터,053-710-2475,242.0,대구광역시 동구 신암동 255-14 동대구역화성파크드림아파트,"대구광역시 동구 동대구로 590, 301동 101호 (신암동, 동대구역화성파크드림아파트)",41216.0,346820.5786,265984.9948,35.88308006343675,128.62670524706405
마음담은 동물병원,031-556-7588,102.13,경기도 남양주시 다산동 6113 213호,"경기도 남양주시 다산중앙로82번안길 28, 213,214호 (다산동)",12249.0,214431.5357,457278.9689,37.6177382810679,127.16424868706547
청학동물병원,031-848-8575,66.95,경기도 남양주시 별내면 청학리 413-3 삼화빌딩,"경기도 남양주시 별내면 청학로68번길 13, 삼화빌딩",12084.0,210453.867,467351.7516,37.70854473562288,127.11933837166411
사과나무 한방재활 동물병원,031-912-7582,124.8,경기도 고양시 일산서구 일산동 1084-3 101호,"경기도 고양시 일산서구 일산로 539, 가람빌딩 101호 (일산동)",10375.0,179459.9283,463906.0494,37.67732761299993,126.76795026934376
위런한방재활동물병원,02-2138-3877,0.0,서울특별시 용산구 한강로2가 422 래미안용산 더 센트럴 225호,"서울특별시 용산구 한강대로 95, 225호 (한강로2가, 래미안용산 더 센트럴)",4378.0,197011.7375,447430.1003,37.529108353605395,126.96698125386858
다올동물병원,062-434-5252,188.15,광주광역시 북구 양산동 777 103호,"광주광역시 북구 양산로71번길 2, 103호 (양산동)",61025.0,189230.789,190094.7015,35.210022491843354,126.88253674105667
삼정동물병원,063-717-7155,0.0,전북특별자치도 전주시 덕진구 인후동1가 894-6,전북특별자치도 전주시 덕진구 가재미로 34 (인후동1가),55024.0,214655.1144,258651.3038,35.827873166068485,127.16298963930825
푸른힐동물병원,031-425-7579,105.92,경기도 안양시 동안구 평촌동 68-14 201호,"경기도 안양시 동안구 흥안대로456번길 24, 201호 (평촌동)",14062.0,197895.6655,432448.6957,37.39412771430489,126.97702542198384
에스동물병원,033-733-0275,99.6,강원특별자치도 원주시 지정면 가곡리 1470-1 원주기업도시 유보라 아이비파크 2단지,"강원특별자치도 원주시 지정면 조엄로 397, 102,103,104호 (원주기업도시 유보라 아이비파크 2단지)",26346.0,276963.7153,430755.3463,37.375686259310946,127.86971530183673
원주더봄동물의료센터,762-7582,230.0,강원특별자치도 원주시 관설동 1399-25,"강원특별자치도 원주시 시청로 528, 103-104호 (관설동)",26470.0,285566.8424,424120.0179,37.31515612238236,127.96606829621676
굿프렌즈동물병원,711-7509,0.0,경기도 용인시 수지구 죽전동 915-3 남곡빌딩,"경기도 용인시 수지구 용구대로 2794, 남곡빌딩 1층 102호 (죽전동)",16866.0,209623.7107,425913.1457,37.33519449230697,127.10938519974435
광산동물병원,944-5550,0.0,광주광역시 광산구 송정동 826-31번지,광주광역시 광산구 광산로 23 (송정동),62430.0,181174.1858,182184.3567,35.13860369904605,126.79423736357329
하남동물병원,952-5446,0.0,광주광역시 광산구 월곡동 511-9번지,광주광역시 광산구 목련로 91-1 (월곡동),62333.0,182425.83,185929.64,35.1723845003538,126.8078913860766
연두동물병원,959-7533,100.0,광주광역시 광산구 신창동 1215-4,"광주광역시 광산구 신창로 52, 1층 101호 (신창동)",62293.0,185107.6163,187867.9404,35.18989877356015,126.83729498024945
해피동물병원,954-4306,30.0,광주광역시 광산구 신가동 930-9번지,광주광역시 광산구 하남대로 279 (신가동),62312.0,183911.4981,186704.0114,35.179389234439704,126.82418482041133
수완종합동물병원,062-959-0975,153.45,광주광역시 광산구 수완동 1452번지,광주광역시 광산구 장신로 164 (수완동),62306.0,184270.3021,187918.4875,35.190341569880914,126.82810060920217
정다운동물병원,062-959-7511,57.04,광주광역시 광산구 하남동 785번지,광주광역시 광산구 용아로399번길 51 (하남동),62336.0,181983.1671,186459.7476,35.177154746350425,126.80302055129776
밝은동물병원,062-962-3141,39.36,광주광역시 광산구 월곡동 61-19,광주광역시 광산구 월곡산정로 67 (월곡동),62348.0,182569.5693,185248.0576,35.16624358346713,126.80948368708052
배선생펫스토리동물병원,062-951-7585,92.97,광주광역시 광산구 신가동 1296번지,광주광역시 광산구 임방울대로 213 (신가동),62322.0,183287.3882,186805.08,35.18028999346375,126.817331154494
광주동물메디컬센터,062-523-0075,684.0,광주광역시 광산구 신창동 77-255,광주광역시 광산구 북문대로420번길 206 (신창동),62273.0,186984.8709,187902.2549,35.19023424502854,126.85790602513283
도담도담동물병원,062-973-7579,92.5,광주광역시 광산구 쌍암동 657-3번지,광주광역시 광산구 첨단중앙로 150 (쌍암동),62274.0,185576.4974,191045.7396,35.218548545938695,126.84238729421328
녹십자동물병원,943-8288,85.26,광주광역시 광산구 송정동 652-1,광주광역시 광산구 광산로 96-1 (송정동),62424.0,181783.0756,182572.0028,35.14210899126488,126.80090997468916
운남동물병원,952-7588,90.0,광주광역시 광산구 신가동 930-5번지,광주광역시 광산구 하남대로 273 (신가동),62312.0,183856.52,186707.86,35.17942303901931,126.82358118337433
예동물병원,945-8277,33.0,광주광역시 광산구 소촌동 529-21번지,"광주광역시 광산구 어등대로 712, 1층 (소촌동)",62429.0,181171.0017,182521.9044,35.14164612973084,126.79419471511709
한빛동물병원,959-7558,87.0,광주광역시 광산구 신가동 1272번지,광주광역시 광산구 수등로76번길 39-8 (신가동),62322.0,183292.6757,186996.2858,35.18201350818357,126.81738531771208
초로동물병원,062-961-7522,0.0,광주광역시 광산구 수완동 725번지 나동 8호,광주광역시 광산구 왕버들로 113-2 (수완동),62245.0,183919.6666,189220.8866,35.202075100989425,126.82422524985144
다나은 동물병원,062-971-1275,180.65,광주광역시 광산구 쌍암동 694-45 루빌코리아 101호,"광주광역시 광산구 첨단강변로99번길 34, 1층 101호 (쌍암동, 루빌코리아)",62279.0,186342.6129,190737.889,35.215784518843876,126.85080704947832
공감동물메디컬센터,062-716-2979,1129.53,광주광역시 광산구 장덕동 1658,"광주광역시 광산구 장신로 72, 101,201호 (장덕동)",62225.0,183351.0812,187937.9747,35.19050235242433,126.81800745590873
신창동물병원,062-952-0750,94.85,광주광역시 광산구 신창동 1131-1,"광주광역시 광산구 신창로 136, 1층 (신창동)",62251.0,185284.8872,188660.8627,35.197048365528154,126.83922714659931
보람동물병원,972-7900,0.0,광주광역시 광산구 선암동 549 광주 선운지구 이지더원 3단지,"광주광역시 광산구 선운로 55, 312동 (상가동) 103,104호 (선암동, 광주 선운지구 이지더원 3단지)",62401.0,179432.1848,183517.1001,35.15058218898561,126.77508963877897
이승재동물병원,932-0970,0.0,대전광역시 대덕구 신탄진동 117-35,대전광역시 대덕구 신탄진로 842 (신탄진동),34306.0,238389.2925,328031.4031,36.45247390613604,127.42902691069122
상아동물병원,627-7744,0.0,대전광역시 대덕구 중리동 133-3,대전광역시 대덕구 계족로 617 (중리동),34389.0,238504.1885,318488.1073,36.366470819875545,127.42983617271923
송촌선비동물병원,637-7572,0.0,대전광역시 대덕구 송촌동 470-8,대전광역시 대덕구 송촌북로4번길 15 (송촌동),34409.0,239228.6535,318103.7864,36.362978314417646,127.43788905761932
고려동물종합병원,042-633-7582,109.65,대전광역시 대덕구 송촌동 481-11,대전광역시 대덕구 송촌로93번길 2 (송촌동),34423.0,239437.3775,318084.009,36.3627915747516,127.44021362231683
스마일동물병원,042)626-3075,110.7,대전광역시 대덕구 중리동 375-26,대전광역시 대덕구 중리로 58 (중리동),34389.0,238100.61,318238.475,36.364237301116376,127.42532716593763
신탄진 동물병원,931-7582,0.0,대전광역시 대덕구 신탄진동 147-5,대전광역시 대덕구 신탄진로 797 (신탄진동),34311.0,238390.889,327594.9216,36.44854055814688,127.42902313490306
디위드동물병원,632-7553,62.4,대전광역시 대덕구 송촌동 445-2 비젼타워,"대전광역시 대덕구 동춘당로114번길 11-17, 비젼타워 (송촌동)",34400.0,239213.4422,318586.4444,36.3673283874239,127.43774385358434
도안 ECO 종합동물병원,042-485-7582,159.0,대전광역시 유성구 봉명동 1053-1번지,대전광역시 유성구 봉명서로 11-13 (봉명동),34190.0,230495.2971,315924.5823,36.34365600916229,127.3404976143804
대한동물병원,042-822-5081,23.39,대전광역시 유성구 장대동 280-6,대전광역시 유성구 장대로 47 (장대동),34172.0,230089.7929,317647.1821,36.35919210060991,127.33604703263701
